{
"type": "FeatureCollection",
"name": "cellulose_rejectedFines_mills_disaggregated",
"crs": { "type": "name", "properties": { "name": "urn:ogc:def:crs:OGC:1.3:CRS84" } },
"features": [
{ "type": "Feature", "properties": { "uid": "GPPMAUT0001", "plant_name": "Norske Skog Bruck GmbH", "city": "BRUCK AN DER MUR", "country": "Austria", "country_matched": "Austria", "latitude": 47.4153119, "longitude": 15.2769543, "n_mills": 26, "rejectedFines_kt": 232.05, "rejectedFines_kt_per_mill": 8.925, "plant_type": "paper", "products": "Coated papers" }, "geometry": { "type": "Point", "coordinates": [ 15.2769543, 47.4153119 ] } },
{ "type": "Feature", "properties": { "uid": "GPPMAUT0002", "plant_name": "Rondo Ganahl AG - Papierfabrik", "city": "FRASTANZ", "country": "Austria", "country_matched": "Austria", "latitude": 47.2183504, "longitude": 9.6392784, "n_mills": 26, "rejectedFines_kt": 232.05, "rejectedFines_kt_per_mill": 8.925, "plant_type": "paper and packaging", "products": "Lining papers; Bag papers; Packaging papers; misc.; Kraft papers" }, "geometry": { "type": "Point", "coordinates": [ 9.6392784, 47.2183504 ] } },
{ "type": "Feature", "properties": { "uid": "GPPMAUT0003", "plant_name": "MM Frohnleiten GmbH, Mayr Melnhof Group", "city": "FROHNLEITEN", "country": "Austria", "country_matched": "Austria", "latitude": 47.2787925, "longitude": 15.3271734, "n_mills": 26, "rejectedFines_kt": 232.05, "rejectedFines_kt_per_mill": 8.925, "plant_type": "paper", "products": null }, "geometry": { "type": "Point", "coordinates": [ 15.3271734, 47.2787925 ] } },
{ "type": "Feature", "properties": { "uid": "GPPMAUT0004", "plant_name": "Sappi Austria Produktions-GmbH & Co KG", "city": "GRATKORN", "country": "Austria", "country_matched": "Austria", "latitude": 47.1358109, "longitude": 15.3343377, "n_mills": 26, "rejectedFines_kt": 232.05, "rejectedFines_kt_per_mill": 8.925, "plant_type": "paper", "products": "Liners; Kraftliner" }, "geometry": { "type": "Point", "coordinates": [ 15.3343377, 47.1358109 ] } },
{ "type": "Feature", "properties": { "uid": "GPPMAUT0005", "plant_name": "Profumed GmbH, Betrieb Grimmenstein", "city": "GRIMMENSTEIN", "country": "Austria", "country_matched": "Austria", "latitude": 47.6089757, "longitude": 16.1228637, "n_mills": 26, "rejectedFines_kt": 232.05, "rejectedFines_kt_per_mill": 8.925, "plant_type": "paper", "products": "Liners; Testliner; Corrugating medium; Papers for corrugated boards; misc.; Corrugated board wrappings; corrugated board packaging" }, "geometry": { "type": "Point", "coordinates": [ 16.1228637, 47.6089757 ] } },
{ "type": "Feature", "properties": { "uid": "GPPMAUT0006", "plant_name": "Smurfit Kappa Nettingsdorf AG & Co. KG", "city": "HAID BEI ANSFELDEN", "country": "Austria", "country_matched": "Austria", "latitude": 48.1831442, "longitude": 14.2586082, "n_mills": 26, "rejectedFines_kt": 232.05, "rejectedFines_kt_per_mill": 8.925, "plant_type": "paper", "products": "Gravure papers in reels; uncoated; Newsprints; Handmade papers; Unbleached papers" }, "geometry": { "type": "Point", "coordinates": [ 14.2586082, 48.1831442 ] } },
{ "type": "Feature", "properties": { "uid": "GPPMAUT0007", "plant_name": "AustroCel Hallein GmbH", "city": "HALLEIN", "country": "Austria", "country_matched": "Austria", "latitude": 47.6752175, "longitude": 13.1104133, "n_mills": 26, "rejectedFines_kt": 232.05, "rejectedFines_kt_per_mill": 8.925, "plant_type": "paper", "products": "Gravure papers in reels; coated; Halftone printing papers; woodfree; coated; Label papers; one-side coated; One-side coated papers; misc.; Embossed papers; Label papers all kinds; Coloured papers; SC papers; calendered papers; Wet strengt" }, "geometry": { "type": "Point", "coordinates": [ 13.1104133, 47.6752175 ] } },
{ "type": "Feature", "properties": { "uid": "GPPMAUT0008", "plant_name": "Ybbstaler Zellstoff GmbH", "city": "KEMATEN AN DER YBBS", "country": "Austria", "country_matched": "Austria", "latitude": 48.0250129, "longitude": 14.7628564, "n_mills": 26, "rejectedFines_kt": 232.05, "rejectedFines_kt_per_mill": 8.925, "plant_type": "pulp and paper", "products": "Chemical pulps for paper-making; paper pulps; Pulps; misc." }, "geometry": { "type": "Point", "coordinates": [ 14.7628564, 48.0250129 ] } },
{ "type": "Feature", "properties": { "uid": "GPPMAUT0010", "plant_name": "Lenzing AG", "city": "LENZING, OBERÖSTERREICH", "country": "Austria", "country_matched": "Austria", "latitude": 47.9753394, "longitude": 13.6153359, "n_mills": 26, "rejectedFines_kt": 232.05, "rejectedFines_kt_per_mill": 8.925, "plant_type": "paper", "products": "Coloured papers; Special papers; specialty papers; Grass paper" }, "geometry": { "type": "Point", "coordinates": [ 13.6153359, 47.9753394 ] } },
{ "type": "Feature", "properties": { "uid": "GPPMAUT0011", "plant_name": "Wagner KG, Pappenfabrik + E-Werk", "city": "NEUFELDEN", "country": "Austria", "country_matched": "Austria", "latitude": 48.5031218, "longitude": 14.0106019, "n_mills": 26, "rejectedFines_kt": 232.05, "rejectedFines_kt_per_mill": 8.925, "plant_type": "paper", "products": "Liners; Fluting; Testliner; Papers for corrugated boards; misc.; Wellenstoff - Waste paper fluting material; Common papers; schrenz; Gypsum board; plasterboard" }, "geometry": { "type": "Point", "coordinates": [ 14.0106019, 48.5031218 ] } },
{ "type": "Feature", "properties": { "uid": "GPPMAUT0013", "plant_name": "Essity Hygiene Products GmbH, Zweigniederlassung Ortmann", "city": "PERNITZ, NIEDERÖSTERREICH", "country": "Austria", "country_matched": "Austria", "latitude": 47.8946001, "longitude": 15.9732505, "n_mills": 26, "rejectedFines_kt": 232.05, "rejectedFines_kt_per_mill": 8.925, "plant_type": "paper and packaging", "products": "SC papers; calendered papers; Papers for corrugated boards; misc." }, "geometry": { "type": "Point", "coordinates": [ 15.9732505, 47.8946001 ] } },
{ "type": "Feature", "properties": { "uid": "GPPMAUT0014", "plant_name": "W. Hamburger GmbH, Teil der Prinzhorn Group", "city": "PITTEN", "country": "Austria", "country_matched": "Austria", "latitude": 47.7075228, "longitude": 16.1770927, "n_mills": 26, "rejectedFines_kt": 232.05, "rejectedFines_kt_per_mill": 8.925, "plant_type": "paper", "products": null }, "geometry": { "type": "Point", "coordinates": [ 16.1770927, 47.7075228 ] } },
{ "type": "Feature", "properties": { "uid": "GPPMAUT0016", "plant_name": "Merckens Karton- und Pappenfabrik GmbH", "city": "SCHWERTBERG", "country": "Austria", "country_matched": "Austria", "latitude": 48.2988974, "longitude": 14.578785, "n_mills": 26, "rejectedFines_kt": 232.05, "rejectedFines_kt_per_mill": 8.925, "plant_type": "paper", "products": "Book papers; Book papers; woodfree; Digital printing papers; Patterned papers; Food packaging paper and board; Special papers; specialty papers" }, "geometry": { "type": "Point", "coordinates": [ 14.578785, 48.2988974 ] } },
{ "type": "Feature", "properties": { "uid": "GPPMAUT0017", "plant_name": "Mondi Frantschach GmbH", "city": "ST. GERTRAUD", "country": "Austria", "country_matched": "Austria", "latitude": 46.8622324, "longitude": 14.8669354, "n_mills": 26, "rejectedFines_kt": 232.05, "rejectedFines_kt_per_mill": 8.925, "plant_type": "paper", "products": "Newsprints; LWC papers" }, "geometry": { "type": "Point", "coordinates": [ 14.8669354, 46.8622324 ] } },
{ "type": "Feature", "properties": { "uid": "GPPMAUT0018", "plant_name": "Salzer Papier GmbH", "city": "ST. PÖLTEN", "country": "Austria", "country_matched": "Austria", "latitude": 48.1975241, "longitude": 15.6377547, "n_mills": 26, "rejectedFines_kt": 232.05, "rejectedFines_kt_per_mill": 8.925, "plant_type": "paper", "products": "Tipping base paper; Packaging papers; misc.; Cigarette papers" }, "geometry": { "type": "Point", "coordinates": [ 15.6377547, 48.1975241 ] } },
{ "type": "Feature", "properties": { "uid": "GPPMAUT0020", "plant_name": "Dr. Franz Feurstein GmbH, delfort", "city": "TRAUN", "country": "Austria", "country_matched": "Austria", "latitude": 48.2188166, "longitude": 14.2430275, "n_mills": 26, "rejectedFines_kt": 232.05, "rejectedFines_kt_per_mill": 8.925, "plant_type": "paper", "products": null }, "geometry": { "type": "Point", "coordinates": [ 14.2430275, 48.2188166 ] } },
{ "type": "Feature", "properties": { "uid": "GPPMAUT0021", "plant_name": "Mondi Neusiedler GmbH", "city": "ULMERFELD-HAUSMENING", "country": "Austria", "country_matched": "Austria", "latitude": 48.0732305, "longitude": 14.8091594, "n_mills": 26, "rejectedFines_kt": 232.05, "rejectedFines_kt_per_mill": 8.925, "plant_type": "paper", "products": "Gumming base papers; Kraft sack papers; sack kraft papers; Chemical pulp wrapping; Kraft papers; Envelope papers" }, "geometry": { "type": "Point", "coordinates": [ 14.8091594, 48.0732305 ] } },
{ "type": "Feature", "properties": { "uid": "GPPMAUT0022", "plant_name": "Poneder Halbstoff-Fabrik GmbH", "city": "ULMERFELD-HAUSMENING", "country": "Austria", "country_matched": "Austria", "latitude": 48.0770228, "longitude": 14.8113399, "n_mills": 26, "rejectedFines_kt": 232.05, "rejectedFines_kt_per_mill": 8.925, "plant_type": "paper", "products": "Crêpe papers; misc.; Embossing wadding; Soft tissue papers; Cellulose wadding; Tissue products for hospital needs" }, "geometry": { "type": "Point", "coordinates": [ 14.8113399, 48.0770228 ] } },
{ "type": "Feature", "properties": { "uid": "GPPMAUT0023", "plant_name": "Papierfabrik Wattens GmbH & Co KG, delfort", "city": "WATTENS", "country": "Austria", "country_matched": "Austria", "latitude": 47.2969362, "longitude": 11.5903444, "n_mills": 26, "rejectedFines_kt": 232.05, "rejectedFines_kt_per_mill": 8.925, "plant_type": "paper", "products": "NSSC pulps" }, "geometry": { "type": "Point", "coordinates": [ 11.5903444, 47.2969362 ] } },
{ "type": "Feature", "properties": { "uid": "GPPMAUT0024", "plant_name": "Essity Hygiene Products GmbH", "city": "WIEN", "country": "Austria", "country_matched": "Austria", "latitude": 48.1849605, "longitude": 16.3329116, "n_mills": 26, "rejectedFines_kt": 232.05, "rejectedFines_kt_per_mill": 8.925, "plant_type": "paper", "products": "Tissue papers; Toilet papers; Kitchen rolls; Toilet tissue papers; Facial tissues; Handkerchiefs; Paper towels; kitchen towels" }, "geometry": { "type": "Point", "coordinates": [ 16.3329116, 48.1849605 ] } },
{ "type": "Feature", "properties": { "uid": "GPPMAUT0025", "plant_name": "MM Packaging GmbH, Mayr-Melnhof Group", "city": "WIEN", "country": "Austria", "country_matched": "Austria", "latitude": 48.1940281, "longitude": 16.3687724, "n_mills": 26, "rejectedFines_kt": 232.05, "rejectedFines_kt_per_mill": 8.925, "plant_type": "paper", "products": "Duplex board; Triplex board; Board; Paperboard misc." }, "geometry": { "type": "Point", "coordinates": [ 16.3687724, 48.1940281 ] } },
{ "type": "Feature", "properties": { "uid": "GPPMAUT0026", "plant_name": "PMH Pulp Mill Holding GmbH", "city": "WIEN", "country": "Austria", "country_matched": "Austria", "latitude": 48.2128591, "longitude": 16.3586141, "n_mills": 26, "rejectedFines_kt": 232.05, "rejectedFines_kt_per_mill": 8.925, "plant_type": "paper", "products": "Plugwrap and filter compound paper; Cigarette papers" }, "geometry": { "type": "Point", "coordinates": [ 16.3586141, 48.2128591 ] } },
{ "type": "Feature", "properties": { "uid": "GPPMAUT0027", "plant_name": "Bruck an der Mur Pulp & Paper Mill", "city": null, "country": "Austria", "country_matched": "Austria", "latitude": 47.416924, "longitude": 15.278207, "n_mills": 26, "rejectedFines_kt": 232.05, "rejectedFines_kt_per_mill": 8.925, "plant_type": "paper", "products": null }, "geometry": { "type": "Point", "coordinates": [ 15.278207, 47.416924 ] } },
{ "type": "Feature", "properties": { "uid": "GPPMAUT0028", "plant_name": "Gratkorn Pulp & Paper Mill", "city": null, "country": "Austria", "country_matched": "Austria", "latitude": 47.13162, "longitude": 15.336602, "n_mills": 26, "rejectedFines_kt": 232.05, "rejectedFines_kt_per_mill": 8.925, "plant_type": "paper", "products": null }, "geometry": { "type": "Point", "coordinates": [ 15.336602, 47.13162 ] } },
{ "type": "Feature", "properties": { "uid": "GPPMAUT0029", "plant_name": "Hallein Pulp Mill & Viscose Fibers", "city": null, "country": "Austria", "country_matched": "Austria", "latitude": 47.675104, "longitude": 13.110303, "n_mills": 26, "rejectedFines_kt": 232.05, "rejectedFines_kt_per_mill": 8.925, "plant_type": "paper", "products": null }, "geometry": { "type": "Point", "coordinates": [ 13.110303, 47.675104 ] } },
{ "type": "Feature", "properties": { "uid": "GPPMAUT0030", "plant_name": "Poels Kraft Pulp and Paper Mill", "city": null, "country": "Austria", "country_matched": "Austria", "latitude": 47.219082, "longitude": 14.585135, "n_mills": 26, "rejectedFines_kt": 232.05, "rejectedFines_kt_per_mill": 8.925, "plant_type": "paper", "products": null }, "geometry": { "type": "Point", "coordinates": [ 14.585135, 47.219082 ] } },
{ "type": "Feature", "properties": { "uid": "GPPMBEL0001", "plant_name": "Renova Belgique", "city": "BRUXELLES/BRUSSEL", "country": "Belgium", "country_matched": "Belgium", "latitude": 50.8171888, "longitude": 4.3711872, "n_mills": 9, "rejectedFines_kt": 167.4615, "rejectedFines_kt_per_mill": 18.606833333333334, "plant_type": "paper", "products": "Toilet papers; Napkins; misc.; Paper towels; kitchen towels" }, "geometry": { "type": "Point", "coordinates": [ 4.3711872, 50.8171888 ] } },
{ "type": "Feature", "properties": { "uid": "GPPMBEL0002", "plant_name": "VPK Paper nv", "city": "DENDERMONDE", "country": "Belgium", "country_matched": "Belgium", "latitude": 51.015326, "longitude": 4.0678475, "n_mills": 9, "rejectedFines_kt": 167.4615, "rejectedFines_kt_per_mill": 18.606833333333334, "plant_type": "paper and packaging", "products": "Liners; Fluting; Testliner; Corrugating medium; Corrugating duplex papers; Papers for corrugated boards; misc.; Wellenstoff - Waste paper fluting material; Bag papers; Sack papers; Common papers; schrenz" }, "geometry": { "type": "Point", "coordinates": [ 4.0678475, 51.015326 ] } },
{ "type": "Feature", "properties": { "uid": "GPPMBEL0003", "plant_name": "Essity Capital NV", "city": "DIEGEM", "country": "Belgium", "country_matched": "Belgium", "latitude": 50.884055, "longitude": 4.4498711, "n_mills": 9, "rejectedFines_kt": 167.4615, "rejectedFines_kt_per_mill": 18.606833333333334, "plant_type": "paper", "products": null }, "geometry": { "type": "Point", "coordinates": [ 4.4498711, 50.884055 ] } },
{ "type": "Feature", "properties": { "uid": "GPPMBEL0004", "plant_name": "LPC Belgium NV", "city": "DUFFEL", "country": "Belgium", "country_matched": "Belgium", "latitude": 51.0870939, "longitude": 4.4927094, "n_mills": 9, "rejectedFines_kt": 167.4615, "rejectedFines_kt_per_mill": 18.606833333333334, "plant_type": "paper", "products": "Toilet tissue papers; Paper napkins; Handkerchiefs; Diapers; nappies; Paper towels; kitchen towels" }, "geometry": { "type": "Point", "coordinates": [ 4.4927094, 51.0870939 ] } },
{ "type": "Feature", "properties": { "uid": "GPPMBEL0005", "plant_name": "Stora Enso Publication Paper Langerbrugge Mill", "city": "GENT", "country": "Belgium", "country_matched": "Belgium", "latitude": 51.1097913, "longitude": 3.7335793, "n_mills": 9, "rejectedFines_kt": 167.4615, "rejectedFines_kt_per_mill": 18.606833333333334, "plant_type": "paper and packaging", "products": "Newsprints; calendered papers" }, "geometry": { "type": "Point", "coordinates": [ 3.7335793, 51.1097913 ] } },
{ "type": "Feature", "properties": { "uid": "GPPMBEL0007", "plant_name": "Papeterie de la Colombe", "city": "JEMEPPE-SUR-SAMBRE", "country": "Belgium", "country_matched": "Belgium", "latitude": 50.4804134, "longitude": 4.7056501, "n_mills": 9, "rejectedFines_kt": 167.4615, "rejectedFines_kt_per_mill": 18.606833333333334, "plant_type": "paper", "products": null }, "geometry": { "type": "Point", "coordinates": [ 4.7056501, 50.4804134 ] } },
{ "type": "Feature", "properties": { "uid": "GPPMBEL0008", "plant_name": "Ahlstrom Malmédy SA", "city": "MALMEDY", "country": "Belgium", "country_matched": "Belgium", "latitude": 50.4197118, "longitude": 6.0100846, "n_mills": 9, "rejectedFines_kt": 167.4615, "rejectedFines_kt_per_mill": 18.606833333333334, "plant_type": "paper", "products": "Non-wovens" }, "geometry": { "type": "Point", "coordinates": [ 6.0100846, 50.4197118 ] } },
{ "type": "Feature", "properties": { "uid": "GPPMBEL0009", "plant_name": "Essity Belgium NV", "city": "STEMBERT", "country": "Belgium", "country_matched": "Belgium", "latitude": 50.5952421, "longitude": 5.8904119, "n_mills": 9, "rejectedFines_kt": 167.4615, "rejectedFines_kt_per_mill": 18.606833333333334, "plant_type": "paper", "products": "Toilet papers; Facial tissues" }, "geometry": { "type": "Point", "coordinates": [ 5.8904119, 50.5952421 ] } },
{ "type": "Feature", "properties": { "uid": "GPPMBEL0010", "plant_name": "Burgo Ardennes S.A.", "city": "VIRTON", "country": "Belgium", "country_matched": "Belgium", "latitude": 49.5518274, "longitude": 5.5054045, "n_mills": 9, "rejectedFines_kt": 167.4615, "rejectedFines_kt_per_mill": 18.606833333333334, "plant_type": "pulp and paper", "products": "Chemical pulps for paper-making; paper pulps; Web offset papers; coated" }, "geometry": { "type": "Point", "coordinates": [ 5.5054045, 49.5518274 ] } },
{ "type": "Feature", "properties": { "uid": "GPPMBGR0001", "plant_name": "Belovo Paper Mill S.A. - Belana, Zeritis Group", "city": "BELOVO", "country": "Bulgaria", "country_matched": "Bulgaria", "latitude": 42.216667, "longitude": 24.0, "n_mills": 8, "rejectedFines_kt": 0.0, "rejectedFines_kt_per_mill": 0.0, "plant_type": "paper", "products": "Opaline board; Tissue papers; Greaseproof and waterproof papers; Core papers; tube papers; Crêpe papers; misc.; Tissue wadding; Toilet papers; Kitchen rolls; Napkins; misc.; Facial tissues; Handkerchiefs" }, "geometry": { "type": "Point", "coordinates": [ 24.0, 42.216667 ] } },
{ "type": "Feature", "properties": { "uid": "GPPMBGR0002", "plant_name": "Kostenets-HHI S.A.", "city": "KOSTENETS", "country": "Bulgaria", "country_matched": "Bulgaria", "latitude": 42.2625019, "longitude": 23.8287052, "n_mills": 8, "rejectedFines_kt": 0.0, "rejectedFines_kt_per_mill": 0.0, "plant_type": "paper", "products": "Wallpaper base; Testliner; Corrugating medium; Wrapping papers; Packaging papers; misc.; Crêpe toilet paper" }, "geometry": { "type": "Point", "coordinates": [ 23.8287052, 42.2625019 ] } },
{ "type": "Feature", "properties": { "uid": "GPPMBGR0003", "plant_name": "Tehart AD", "city": "MIZIA", "country": "Bulgaria", "country_matched": "Bulgaria", "latitude": 43.6912379, "longitude": 23.8533974, "n_mills": 8, "rejectedFines_kt": 0.0, "rejectedFines_kt_per_mill": 0.0, "plant_type": "paper", "products": "Writing papers; Corrugating medium" }, "geometry": { "type": "Point", "coordinates": [ 23.8533974, 43.6912379 ] } },
{ "type": "Feature", "properties": { "uid": "GPPMBGR0004", "plant_name": "DS Smith Bulgaria SA, DS Smith Group", "city": "PAZARDZHIK", "country": "Bulgaria", "country_matched": "Bulgaria", "latitude": 42.158081, "longitude": 24.3129409, "n_mills": 8, "rejectedFines_kt": 0.0, "rejectedFines_kt_per_mill": 0.0, "plant_type": "paper", "products": "Testliner; Corrugated boards; misc.; orrugated board packaging" }, "geometry": { "type": "Point", "coordinates": [ 24.3129409, 42.158081 ] } },
{ "type": "Feature", "properties": { "uid": "GPPMBGR0006", "plant_name": "Nova Knizhna Fabrika Ltd", "city": "SOFIA", "country": "Bulgaria", "country_matched": "Bulgaria", "latitude": 42.6615963, "longitude": 23.4194144, "n_mills": 8, "rejectedFines_kt": 0.0, "rejectedFines_kt_per_mill": 0.0, "plant_type": "paper", "products": "Fluting; Wrapping papers; Cardboard; solid board" }, "geometry": { "type": "Point", "coordinates": [ 23.4194144, 42.6615963 ] } },
{ "type": "Feature", "properties": { "uid": "GPPMBGR0007", "plant_name": "Mondi Stambolijski EAD", "city": "STAMBOLIYSKI", "country": "Bulgaria", "country_matched": "Bulgaria", "latitude": 42.1703795, "longitude": 24.327179, "n_mills": 8, "rejectedFines_kt": 0.0, "rejectedFines_kt_per_mill": 0.0, "plant_type": "paper", "products": "Fluting; Kraft papers; Paper sacks; Paper bags" }, "geometry": { "type": "Point", "coordinates": [ 24.327179, 42.1703795 ] } },
{ "type": "Feature", "properties": { "uid": "GPPMBGR0009", "plant_name": "Flexprint Ltd, delfort", "city": "TSALAPITSA", "country": "Bulgaria", "country_matched": "Bulgaria", "latitude": 42.1726593, "longitude": 24.7469431, "n_mills": 8, "rejectedFines_kt": 0.0, "rejectedFines_kt_per_mill": 0.0, "plant_type": "paper", "products": "Liners; Tipping papers; Labels all kinds" }, "geometry": { "type": "Point", "coordinates": [ 24.7469431, 42.1726593 ] } },
{ "type": "Feature", "properties": { "uid": "GPPMBGR0010", "plant_name": "Stambolijski Kraft Pulp & Paper Mill", "city": null, "country": "Bulgaria", "country_matched": "Bulgaria", "latitude": 42.1340315, "longitude": 24.5212027, "n_mills": 8, "rejectedFines_kt": 0.0, "rejectedFines_kt_per_mill": 0.0, "plant_type": "pulp and paper", "products": null }, "geometry": { "type": "Point", "coordinates": [ 24.5212027, 42.1340315 ] } },
{ "type": "Feature", "properties": { "uid": "GPPMCHE0001", "plant_name": "S²P AG Straw Pulp and Paper", "city": "ALPNACH DORF", "country": "Switzerland", "country_matched": "Switzerland", "latitude": 46.9372677, "longitude": 8.2766454, "n_mills": 13, "rejectedFines_kt": 171.1725, "rejectedFines_kt_per_mill": 13.167115384615386, "plant_type": "paper", "products": null }, "geometry": { "type": "Point", "coordinates": [ 8.2766454, 46.9372677 ] } },
{ "type": "Feature", "properties": { "uid": "GPPMCHE0002", "plant_name": "Swiss Quality Paper AG, Swiss Operations", "city": "BALSTHAL", "country": "Switzerland", "country_matched": "Switzerland", "latitude": 47.3145681, "longitude": 7.6992514, "n_mills": 13, "rejectedFines_kt": 171.1725, "rejectedFines_kt_per_mill": 13.167115384615386, "plant_type": "paper", "products": "Paper" }, "geometry": { "type": "Point", "coordinates": [ 7.6992514, 47.3145681 ] } },
{ "type": "Feature", "properties": { "uid": "GPPMCHE0003", "plant_name": "Cartaseta AG", "city": "GRETZENBACH", "country": "Switzerland", "country_matched": "Switzerland", "latitude": 47.3647146, "longitude": 7.9770764, "n_mills": 13, "rejectedFines_kt": 171.1725, "rejectedFines_kt_per_mill": 13.167115384615386, "plant_type": "paper", "products": null }, "geometry": { "type": "Point", "coordinates": [ 7.9770764, 47.3647146 ] } },
{ "type": "Feature", "properties": { "uid": "GPPMCHE0004", "plant_name": "Landqart AG", "city": "LANDQUART", "country": "Switzerland", "country_matched": "Switzerland", "latitude": 46.9476188, "longitude": 9.5688877, "n_mills": 13, "rejectedFines_kt": 171.1725, "rejectedFines_kt_per_mill": 13.167115384615386, "plant_type": "paper", "products": "Mould paper" }, "geometry": { "type": "Point", "coordinates": [ 9.5688877, 46.9476188 ] } },
{ "type": "Feature", "properties": { "uid": "GPPMCHE0005", "plant_name": "Swiss Krono", "city": "Menznau", "country": "Switzerland", "country_matched": "Switzerland", "latitude": 47.091634670547798, "longitude": 8.0322645955505898, "n_mills": 13, "rejectedFines_kt": 171.1725, "rejectedFines_kt_per_mill": 13.167115384615386, "plant_type": "paper", "products": "Paper" }, "geometry": { "type": "Point", "coordinates": [ 8.03226459555059, 47.091634670547798 ] } },
{ "type": "Feature", "properties": { "uid": "GPPMCHE0006", "plant_name": "Smurfit Kappa Swisswell AG", "city": "Möhlin", "country": "Switzerland", "country_matched": "Switzerland", "latitude": 47.573330134721097, "longitude": 7.8458705969380498, "n_mills": 13, "rejectedFines_kt": 171.1725, "rejectedFines_kt_per_mill": 13.167115384615386, "plant_type": "paper", "products": "Paper" }, "geometry": { "type": "Point", "coordinates": [ 7.84587059693805, 47.573330134721097 ] } },
{ "type": "Feature", "properties": { "uid": "GPPMCHE0007", "plant_name": "Papierfabrik Netstal AG", "city": "NETSTAL", "country": "Switzerland", "country_matched": "Switzerland", "latitude": 47.075971, "longitude": 9.0592583, "n_mills": 13, "rejectedFines_kt": 171.1725, "rejectedFines_kt_per_mill": 13.167115384615386, "plant_type": "paper", "products": null }, "geometry": { "type": "Point", "coordinates": [ 9.0592583, 47.075971 ] } },
{ "type": "Feature", "properties": { "uid": "GPPMCHE0008", "plant_name": "Tschudi + Cie AG", "city": "NETSTAL", "country": "Switzerland", "country_matched": "Switzerland", "latitude": 47.0645197, "longitude": 9.0592284, "n_mills": 13, "rejectedFines_kt": 171.1725, "rejectedFines_kt_per_mill": 13.167115384615386, "plant_type": "paper", "products": null }, "geometry": { "type": "Point", "coordinates": [ 9.0592284, 47.0645197 ] } },
{ "type": "Feature", "properties": { "uid": "GPPMCHE0009", "plant_name": "Tela GmbH", "city": "NIEDERBIPP", "country": "Switzerland", "country_matched": "Switzerland", "latitude": 47.2751069, "longitude": 7.7041872, "n_mills": 13, "rejectedFines_kt": 171.1725, "rejectedFines_kt_per_mill": 13.167115384615386, "plant_type": "paper", "products": "Sanitary paper" }, "geometry": { "type": "Point", "coordinates": [ 7.7041872, 47.2751069 ] } },
{ "type": "Feature", "properties": { "uid": "GPPMCHE0010", "plant_name": "Model AG", "city": "NIEDERGÖSGEN", "country": "Switzerland", "country_matched": "Switzerland", "latitude": 47.3673725, "longitude": 7.9853487, "n_mills": 13, "rejectedFines_kt": 171.1725, "rejectedFines_kt_per_mill": 13.167115384615386, "plant_type": "paper", "products": "Paper" }, "geometry": { "type": "Point", "coordinates": [ 7.9853487, 47.3673725 ] } },
{ "type": "Feature", "properties": { "uid": "GPPMCHE0011", "plant_name": "CPH Chemie + Papier Holding AG, Hauptsitz / Industriegruppe", "city": "PERLEN", "country": "Switzerland", "country_matched": "Switzerland", "latitude": 47.1116261, "longitude": 8.3669862, "n_mills": 13, "rejectedFines_kt": 171.1725, "rejectedFines_kt_per_mill": 13.167115384615386, "plant_type": "paper", "products": "Newsprint and magazine paper" }, "geometry": { "type": "Point", "coordinates": [ 8.3669862, 47.1116261 ] } },
{ "type": "Feature", "properties": { "uid": "GPPMCHE0012", "plant_name": "SIGA Services AG", "city": "Ruswil", "country": "Switzerland", "country_matched": "Switzerland", "latitude": 47.042758770980598, "longitude": 8.1374105536777304, "n_mills": 13, "rejectedFines_kt": 171.1725, "rejectedFines_kt_per_mill": 13.167115384615386, "plant_type": "paper", "products": "Tape" }, "geometry": { "type": "Point", "coordinates": [ 8.13741055367773, 47.042758770980598 ] } },
{ "type": "Feature", "properties": { "uid": "GPPMCHE0013", "plant_name": "Model paper mill Weinfelden (CH)", "city": "Weinfelden", "country": "Switzerland", "country_matched": "Switzerland", "latitude": 47.578890457392198, "longitude": 9.1090081863791799, "n_mills": 13, "rejectedFines_kt": 171.1725, "rejectedFines_kt_per_mill": 13.167115384615386, "plant_type": "paper", "products": "Paper" }, "geometry": { "type": "Point", "coordinates": [ 9.10900818637918, 47.578890457392198 ] } },
{ "type": "Feature", "properties": { "uid": "GPPMCZE0002", "plant_name": "Cerepa a.s.", "city": "ČERVENÁ ŘEČICE", "country": "Czech Republic", "country_matched": "Czechia", "latitude": 49.508193, "longitude": 15.1673802, "n_mills": 14, "rejectedFines_kt": 151.35, "rejectedFines_kt_per_mill": 10.810714285714285, "plant_type": "paper", "products": "Greaseproof and waterproof papers; Soft tissue papers; Toilet papers" }, "geometry": { "type": "Point", "coordinates": [ 15.1673802, 49.508193 ] } },
{ "type": "Feature", "properties": { "uid": "GPPMCZE0003", "plant_name": "Krkonošské papírny a.s., KRPA Holding", "city": "HOSTINNÉ", "country": "Czech Republic", "country_matched": "Czechia", "latitude": 50.5356562, "longitude": 15.7376804, "n_mills": 14, "rejectedFines_kt": 151.35, "rejectedFines_kt_per_mill": 10.810714285714285, "plant_type": "paper", "products": "Continuous stationery paper; Carbonless papers / NCR papers; Writing papers; Printing base papers; Imitation greaseproofs; Packaging papers; misc.; Photocopy papers; copier papers; printer papers; Drawing board" }, "geometry": { "type": "Point", "coordinates": [ 15.7376804, 50.5356562 ] } },
{ "type": "Feature", "properties": { "uid": "GPPMCZE0004", "plant_name": "Smurfit Kappa Czech s.r.o. Závod Morava Paper, Smurfit Kappa Morava Paper", "city": "HRADEC NAD MORAVICÍ", "country": "Czech Republic", "country_matched": "Czechia", "latitude": 49.8550895, "longitude": 17.8490517, "n_mills": 14, "rejectedFines_kt": 151.35, "rejectedFines_kt_per_mill": 10.810714285714285, "plant_type": "paper", "products": "Fluting; Testliner; Common papers; schrenz" }, "geometry": { "type": "Point", "coordinates": [ 17.8490517, 49.8550895 ] } },
{ "type": "Feature", "properties": { "uid": "GPPMCZE0005", "plant_name": "Olšanské papírny Jindřichov Mill", "city": "JINDŘICHOV U ŠUMPERKA", "country": "Czech Republic", "country_matched": "Czechia", "latitude": 50.1149096, "longitude": 17.0341951, "n_mills": 14, "rejectedFines_kt": 151.35, "rejectedFines_kt_per_mill": 10.810714285714285, "plant_type": "paper", "products": "Continuous stationery paper; Writing papers; Index board; Hot-melt coated papers; Envelope papers; Office papers" }, "geometry": { "type": "Point", "coordinates": [ 17.0341951, 50.1149096 ] } },
{ "type": "Feature", "properties": { "uid": "GPPMCZE0006", "plant_name": "Korona Lochovice spol. s r.o.", "city": "LOCHOVICE", "country": "Czech Republic", "country_matched": "Czechia", "latitude": 49.8499093, "longitude": 13.9751718, "n_mills": 14, "rejectedFines_kt": 151.35, "rejectedFines_kt_per_mill": 10.810714285714285, "plant_type": "paper", "products": "Grey board; chip board; Book binding boards; Files and folders; Ring books" }, "geometry": { "type": "Point", "coordinates": [ 13.9751718, 49.8499093 ] } },
{ "type": "Feature", "properties": { "uid": "GPPMCZE0007", "plant_name": "Novák-papír s.r.o.", "city": "LOUNY", "country": "Czech Republic", "country_matched": "Czechia", "latitude": 50.3742217, "longitude": 13.9558154, "n_mills": 14, "rejectedFines_kt": 151.35, "rejectedFines_kt_per_mill": 10.810714285714285, "plant_type": "paper", "products": "Greaseproof and waterproof papers; Wrapping papers; Giftwrap; Food packaging paper and board; Recycling papers; Table cloth of paper and non-wovens" }, "geometry": { "type": "Point", "coordinates": [ 13.9558154, 50.3742217 ] } },
{ "type": "Feature", "properties": { "uid": "GPPMCZE0009", "plant_name": "OP Papírna s.r.o., delfort", "city": "OLŠANY U ŠUMPERKA", "country": "Czech Republic", "country_matched": "Czechia", "latitude": 49.9596659, "longitude": 16.8653919, "n_mills": 14, "rejectedFines_kt": 151.35, "rejectedFines_kt_per_mill": 10.810714285714285, "plant_type": "pulp and paper", "products": "Pulps; misc.; Tipping base paper; Plugwrap and filter compound paper; Cigarette papers" }, "geometry": { "type": "Point", "coordinates": [ 16.8653919, 49.9596659 ] } },
{ "type": "Feature", "properties": { "uid": "GPPMCZE0012", "plant_name": "Emba spol. s.r.o.", "city": "PASEKY NAD JIZEROU", "country": "Czech Republic", "country_matched": "Czechia", "latitude": 50.7231561, "longitude": 15.4149329, "n_mills": 14, "rejectedFines_kt": 151.35, "rejectedFines_kt_per_mill": 10.810714285714285, "plant_type": "paper", "products": "Grey board; chip board; Jacquard board; Suitcase boards; Shoe boards; Book binding boards" }, "geometry": { "type": "Point", "coordinates": [ 15.4149329, 50.7231561 ] } },
{ "type": "Feature", "properties": { "uid": "GPPMCZE0014", "plant_name": "Papírna Aloisov a.s.", "city": "RUDA NAD MORAVOU", "country": "Czech Republic", "country_matched": "Czechia", "latitude": 49.9949831, "longitude": 16.8817834, "n_mills": 14, "rejectedFines_kt": 151.35, "rejectedFines_kt_per_mill": 10.810714285714285, "plant_type": "paper", "products": "Writing papers; Unbleached papers; Coloured papers; Fluting; Aquarel papers; Recycling papers; Coloured board; Unbleached board; Board; Paperboard misc.; Target board" }, "geometry": { "type": "Point", "coordinates": [ 16.8817834, 49.9949831 ] } },
{ "type": "Feature", "properties": { "uid": "GPPMCZE0015", "plant_name": "SPM - Security Paper Mill a. s.", "city": "ŠTĚTÍ", "country": "Czech Republic", "country_matched": "Czechia", "latitude": 50.4597331, "longitude": 14.3692923, "n_mills": 14, "rejectedFines_kt": 151.35, "rejectedFines_kt_per_mill": 10.810714285714285, "plant_type": "paper", "products": "Postage stamp papers; Safety papers; misc.; Security papers; Calendar writing papers; Watermarked papers; Map papers; Grease resistant papers; grease repellent papers; Water repellent papers; water resistant papers; Aseptic papers; OCR" }, "geometry": { "type": "Point", "coordinates": [ 14.3692923, 50.4597331 ] } },
{ "type": "Feature", "properties": { "uid": "GPPMCZE0016", "plant_name": "JIP-Papírny Větřní a.s.", "city": "VĚTŘNÍ", "country": "Czech Republic", "country_matched": "Czechia", "latitude": 48.7800203, "longitude": 14.2975814, "n_mills": 14, "rejectedFines_kt": 151.35, "rejectedFines_kt_per_mill": 10.810714285714285, "plant_type": "paper", "products": "Fluting; Wrapping papers; MG papers; machine-glazed papers; Crêpe papers; misc." }, "geometry": { "type": "Point", "coordinates": [ 14.2975814, 48.7800203 ] } },
{ "type": "Feature", "properties": { "uid": "GPPMCZE0017", "plant_name": "Balsac Papermill s.r.o.", "city": "ZÁBŘEH", "country": "Czech Republic", "country_matched": "Czechia", "latitude": 49.8248476, "longitude": 16.9222666, "n_mills": 14, "rejectedFines_kt": 151.35, "rejectedFines_kt_per_mill": 10.810714285714285, "plant_type": "paper", "products": "Sulphite papers; Recycling papers; Paper bags" }, "geometry": { "type": "Point", "coordinates": [ 16.9222666, 49.8248476 ] } },
{ "type": "Feature", "properties": { "uid": "GPPMCZE0018", "plant_name": "Paskov Pulp Mill", "city": null, "country": "Czech Republic", "country_matched": "Czechia", "latitude": 49.71437, "longitude": 18.29244, "n_mills": 14, "rejectedFines_kt": 151.35, "rejectedFines_kt_per_mill": 10.810714285714285, "plant_type": "paper", "products": null }, "geometry": { "type": "Point", "coordinates": [ 18.29244, 49.71437 ] } },
{ "type": "Feature", "properties": { "uid": "GPPMCZE0019", "plant_name": "Steti Pulp and Paper Mill Complex", "city": null, "country": "Czech Republic", "country_matched": "Czechia", "latitude": 50.463299, "longitude": 14.373812, "n_mills": 14, "rejectedFines_kt": 151.35, "rejectedFines_kt_per_mill": 10.810714285714285, "plant_type": "paper", "products": null }, "geometry": { "type": "Point", "coordinates": [ 14.373812, 50.463299 ] } },
{ "type": "Feature", "properties": { "uid": "GPPMDEU0001", "plant_name": "Munksjö Germany Holding GmbH", "city": "AALEN", "country": "Germany", "country_matched": "Germany", "latitude": 48.8402916, "longitude": 10.0935637, "n_mills": 130, "rejectedFines_kt": 1859.814, "rejectedFines_kt_per_mill": 14.306261538461539, "plant_type": "paper", "products": null }, "geometry": { "type": "Point", "coordinates": [ 10.0935637, 48.8402916 ] } },
{ "type": "Feature", "properties": { "uid": "GPPMDEU0002", "plant_name": "Munksjö Unterkochen GmbH", "city": "AALEN", "country": "Germany", "country_matched": "Germany", "latitude": 48.8163177, "longitude": 10.1315446, "n_mills": 130, "rejectedFines_kt": 1859.814, "rejectedFines_kt_per_mill": 14.306261538461539, "plant_type": "paper", "products": null }, "geometry": { "type": "Point", "coordinates": [ 10.1315446, 48.8163177 ] } },
{ "type": "Feature", "properties": { "uid": "GPPMDEU0003", "plant_name": "Papierfabrik Palm", "city": "AALEN", "country": "Germany", "country_matched": "Germany", "latitude": 48.8246673, "longitude": 10.172062, "n_mills": 130, "rejectedFines_kt": 1859.814, "rejectedFines_kt_per_mill": 14.306261538461539, "plant_type": "paper", "products": "Testliner; Papers for corrugated boards; misc.; Wellenstoff - Waste paper fluting material" }, "geometry": { "type": "Point", "coordinates": [ 10.172062, 48.8246673 ] } },
{ "type": "Feature", "properties": { "uid": "GPPMDEU0004", "plant_name": "Papierfabrik Zerkall GmbH", "city": "ALDENHOVEN", "country": "Germany", "country_matched": "Germany", "latitude": 50.9030078, "longitude": 6.3072678, "n_mills": 130, "rejectedFines_kt": 1859.814, "rejectedFines_kt_per_mill": 14.306261538461539, "plant_type": "paper and packaging", "products": "Watermarked papers; Ingres papers; Age resistant papers; Board; Paperboard misc." }, "geometry": { "type": "Point", "coordinates": [ 6.3072678, 50.9030078 ] } },
{ "type": "Feature", "properties": { "uid": "GPPMDEU0005", "plant_name": "Sappi Alfeld Kraft Pulp and Paper Mill", "city": "Alfeld", "country": "Germany", "country_matched": "Germany", "latitude": 51.987118, "longitude": 9.819078, "n_mills": 130, "rejectedFines_kt": 1859.814, "rejectedFines_kt_per_mill": 14.306261538461539, "plant_type": "pulp and paper", "products": null }, "geometry": { "type": "Point", "coordinates": [ 9.819078, 51.987118 ] } },
{ "type": "Feature", "properties": { "uid": "GPPMDEU0006", "plant_name": "Sappi Alfeld GmbH", "city": "ALFELD (LEINE)", "country": "Germany", "country_matched": "Germany", "latitude": 51.9867772, "longitude": 9.8189569, "n_mills": 130, "rejectedFines_kt": 1859.814, "rejectedFines_kt_per_mill": 14.306261538461539, "plant_type": "paper", "products": "Two-side coated papers; misc.; Special papers; specialty papers" }, "geometry": { "type": "Point", "coordinates": [ 9.8189569, 51.9867772 ] } },
{ "type": "Feature", "properties": { "uid": "GPPMDEU0007", "plant_name": "Schönfelder Papierfabrik GmbH", "city": "ANNABERG-BUCHHOLZ", "country": "Germany", "country_matched": "Germany", "latitude": 50.6047697, "longitude": 12.9915235, "n_mills": 130, "rejectedFines_kt": 1859.814, "rejectedFines_kt_per_mill": 14.306261538461539, "plant_type": "paper", "products": "Newsprints; Wallpaper base; Envelope papers; Recycling papers" }, "geometry": { "type": "Point", "coordinates": [ 12.9915235, 50.6047697 ] } },
{ "type": "Feature", "properties": { "uid": "GPPMDEU0008", "plant_name": "Kartonfabrik Buchmann GmbH, Weig Gruppe", "city": "ANNWEILER AM TRIFELS", "country": "Germany", "country_matched": "Germany", "latitude": 49.2092996, "longitude": 7.936382, "n_mills": 130, "rejectedFines_kt": 1859.814, "rejectedFines_kt_per_mill": 14.306261538461539, "plant_type": "paper", "products": null }, "geometry": { "type": "Point", "coordinates": [ 7.936382, 49.2092996 ] } },
{ "type": "Feature", "properties": { "uid": "GPPMDEU0009", "plant_name": "Papierfabrik Poerringer GmbH & Co KG, Teil der Macherey-Nagel GmbH & Co. KG", "city": "ANNWEILER AM TRIFELS", "country": "Germany", "country_matched": "Germany", "latitude": 49.2038705, "longitude": 7.947901, "n_mills": 130, "rejectedFines_kt": 1859.814, "rejectedFines_kt_per_mill": 14.306261538461539, "plant_type": "paper and packaging", "products": "Filtermass; Filter board; Filter papers; Round and folding filters" }, "geometry": { "type": "Point", "coordinates": [ 7.947901, 49.2038705 ] } },
{ "type": "Feature", "properties": { "uid": "GPPMDEU0011", "plant_name": "R.D.M. Arnsberg GmbH", "city": "ARNSBERG", "country": "Germany", "country_matched": "Germany", "latitude": 51.3919437, "longitude": 8.0724797, "n_mills": 130, "rejectedFines_kt": 1859.814, "rejectedFines_kt_per_mill": 14.306261538461539, "plant_type": "paper and packaging", "products": "Folding boxboard; Barrier board" }, "geometry": { "type": "Point", "coordinates": [ 8.0724797, 51.3919437 ] } },
{ "type": "Feature", "properties": { "uid": "GPPMDEU0012", "plant_name": "WEPA Deutschland GmbH & Co. KG", "city": "ARNSBERG", "country": "Germany", "country_matched": "Germany", "latitude": 51.4093597, "longitude": 7.9918698, "n_mills": 130, "rejectedFines_kt": 1859.814, "rejectedFines_kt_per_mill": 14.306261538461539, "plant_type": "paper", "products": "Towel papers; Toweling; Kitchen rolls; Toilet tissue papers; Napkins; misc.; Facial tissues; Handkerchiefs" }, "geometry": { "type": "Point", "coordinates": [ 7.9918698, 51.4093597 ] } },
{ "type": "Feature", "properties": { "uid": "GPPMDEU0013", "plant_name": "DS Smith Paper Deutschland GmbH Werk Aschaffenburg", "city": "ASCHAFFENBURG", "country": "Germany", "country_matched": "Germany", "latitude": 49.9873674, "longitude": 9.1571398, "n_mills": 130, "rejectedFines_kt": 1859.814, "rejectedFines_kt_per_mill": 14.306261538461539, "plant_type": "paper and packaging", "products": "Testliner; Corrugating medium" }, "geometry": { "type": "Point", "coordinates": [ 9.1571398, 49.9873674 ] } },
{ "type": "Feature", "properties": { "uid": "GPPMDEU0014", "plant_name": "UPM Augsburg, UPM GmbH", "city": "AUGSBURG", "country": "Germany", "country_matched": "Germany", "latitude": 48.3794, "longitude": 10.90003, "n_mills": 130, "rejectedFines_kt": 1859.814, "rejectedFines_kt_per_mill": 14.306261538461539, "plant_type": "paper", "products": "Web offset papers; uncoated; LWC papers; Web offset papers; coated" }, "geometry": { "type": "Point", "coordinates": [ 10.90003, 48.3794 ] } },
{ "type": "Feature", "properties": { "uid": "GPPMDEU0015", "plant_name": "Flexipack International Wunderlich GmbH + Co. KG, Werk I: Firmenhauptsitz", "city": "BAAR-EBENHAUSEN", "country": "Germany", "country_matched": "Germany", "latitude": 48.69288, "longitude": 11.4759, "n_mills": 130, "rejectedFines_kt": 1859.814, "rejectedFines_kt_per_mill": 14.306261538461539, "plant_type": "paper and packaging", "products": "Cardboard; packaging" }, "geometry": { "type": "Point", "coordinates": [ 11.4759, 48.69288 ] } },
{ "type": "Feature", "properties": { "uid": "GPPMDEU0016", "plant_name": "Heinrich Schaller Pappenfabrik e.K.", "city": "BAD ALEXANDERSBAD", "country": "Germany", "country_matched": "Germany", "latitude": 50.0210149, "longitude": 12.0200894, "n_mills": 130, "rejectedFines_kt": 1859.814, "rejectedFines_kt_per_mill": 14.306261538461539, "plant_type": "pulp and paper", "products": null }, "geometry": { "type": "Point", "coordinates": [ 12.0200894, 50.0210149 ] } },
{ "type": "Feature", "properties": { "uid": "GPPMDEU0018", "plant_name": "Lenk Paper GmbH, Papierfabrik Schleipen", "city": "BAD DuRKHEIM", "country": "Germany", "country_matched": "Germany", "latitude": 49.4648466, "longitude": 8.109916, "n_mills": 130, "rejectedFines_kt": 1859.814, "rejectedFines_kt_per_mill": 14.306261538461539, "plant_type": "pulp and paper", "products": "Book papers; woodfree; Bookend papers" }, "geometry": { "type": "Point", "coordinates": [ 8.109916, 49.4648466 ] } },
{ "type": "Feature", "properties": { "uid": "GPPMDEU0020", "plant_name": "Ahlstrom Germany GmbH", "city": "BÄRENSTEIN", "country": "Germany", "country_matched": "Germany", "latitude": 50.4542383, "longitude": 13.0227966, "n_mills": 130, "rejectedFines_kt": 1859.814, "rejectedFines_kt_per_mill": 14.306261538461539, "plant_type": "paper", "products": "Filter papers; Filter paper articles" }, "geometry": { "type": "Point", "coordinates": [ 13.0227966, 50.4542383 ] } },
{ "type": "Feature", "properties": { "uid": "GPPMDEU0022", "plant_name": "Mitsubishi HiTec Paper Europe GmbH", "city": "BIELEFELD", "country": "Germany", "country_matched": "Germany", "latitude": 51.9997055, "longitude": 8.6140745, "n_mills": 130, "rejectedFines_kt": 1859.814, "rejectedFines_kt_per_mill": 14.306261538461539, "plant_type": "paper", "products": "Paper" }, "geometry": { "type": "Point", "coordinates": [ 8.6140745, 51.9997055 ] } },
{ "type": "Feature", "properties": { "uid": "GPPMDEU0023", "plant_name": "Sprick GmbH Bielefelder Papier- und Wellpappenwerke & Co., Hauptverwaltung", "city": "BIELEFELD", "country": "Germany", "country_matched": "Germany", "latitude": 52.0249437, "longitude": 8.5625952, "n_mills": 130, "rejectedFines_kt": 1859.814, "rejectedFines_kt_per_mill": 14.306261538461539, "plant_type": "pulp and paper", "products": null }, "geometry": { "type": "Point", "coordinates": [ 8.5625952, 52.0249437 ] } },
{ "type": "Feature", "properties": { "uid": "GPPMDEU0024", "plant_name": "Neenah Gessner GmbH, MATIV Group", "city": "BRUCKMuHL", "country": "Germany", "country_matched": "Germany", "latitude": 47.8799441, "longitude": 11.8959475, "n_mills": 130, "rejectedFines_kt": 1859.814, "rejectedFines_kt_per_mill": 14.306261538461539, "plant_type": "paper", "products": null }, "geometry": { "type": "Point", "coordinates": [ 11.8959475, 47.8799441 ] } },
{ "type": "Feature", "properties": { "uid": "GPPMDEU0025", "plant_name": "Progroup Paper PM1 GmbH", "city": "BURG", "country": "Germany", "country_matched": "Germany", "latitude": 52.253142, "longitude": 11.8819181, "n_mills": 130, "rejectedFines_kt": 1859.814, "rejectedFines_kt_per_mill": 14.306261538461539, "plant_type": "paper", "products": "Kraftliner; Testliner; Wellenstoff - Waste paper fluting material" }, "geometry": { "type": "Point", "coordinates": [ 11.8819181, 52.253142 ] } },
{ "type": "Feature", "properties": { "uid": "GPPMDEU0026", "plant_name": "Hahnemuhle FineArt GmbH", "city": "DASSEL", "country": "Germany", "country_matched": "Germany", "latitude": 51.7801782, "longitude": 9.6912132, "n_mills": 130, "rejectedFines_kt": 1859.814, "rejectedFines_kt_per_mill": 14.306261538461539, "plant_type": "paper", "products": "Paper" }, "geometry": { "type": "Point", "coordinates": [ 9.6912132, 51.7801782 ] } },
{ "type": "Feature", "properties": { "uid": "GPPMDEU0027", "plant_name": "Kartonfabrik Kaierde GmbH & Co Produktions KG", "city": "DELLIGSEN", "country": "Germany", "country_matched": "Germany", "latitude": 51.9318774, "longitude": 9.7830663, "n_mills": 130, "rejectedFines_kt": 1859.814, "rejectedFines_kt_per_mill": 14.306261538461539, "plant_type": "paper and packaging", "products": "Grey board; chip board; Pasted board" }, "geometry": { "type": "Point", "coordinates": [ 9.7830663, 51.9318774 ] } },
{ "type": "Feature", "properties": { "uid": "GPPMDEU0028", "plant_name": "Munksjö Dettingen GmbH", "city": "DETTINGEN AN DER ERMS", "country": "Germany", "country_matched": "Germany", "latitude": 48.5156333, "longitude": 9.3618745, "n_mills": 130, "rejectedFines_kt": 1859.814, "rejectedFines_kt_per_mill": 14.306261538461539, "plant_type": "paper", "products": null }, "geometry": { "type": "Point", "coordinates": [ 9.3618745, 48.5156333 ] } },
{ "type": "Feature", "properties": { "uid": "GPPMDEU0029", "plant_name": "Smurfit Kappa Wrexen Paper & Board GmbH", "city": "DIEMELSTADT", "country": "Germany", "country_matched": "Germany", "latitude": 51.5064068, "longitude": 8.9793228, "n_mills": 130, "rejectedFines_kt": 1859.814, "rejectedFines_kt_per_mill": 14.306261538461539, "plant_type": "paper", "products": "Lining papers; Testliner; Wellenstoff - Waste paper fluting material; Core board; tube board; Book binding boards" }, "geometry": { "type": "Point", "coordinates": [ 8.9793228, 51.5064068 ] } },
{ "type": "Feature", "properties": { "uid": "GPPMDEU0031", "plant_name": "UPM Nordland Papier GmbH", "city": "DÖRPEN", "country": "Germany", "country_matched": "Germany", "latitude": 52.979797, "longitude": 7.3585062, "n_mills": 130, "rejectedFines_kt": 1859.814, "rejectedFines_kt_per_mill": 14.306261538461539, "plant_type": "paper", "products": "Paper" }, "geometry": { "type": "Point", "coordinates": [ 7.3585062, 52.979797 ] } },
{ "type": "Feature", "properties": { "uid": "GPPMDEU0032", "plant_name": "Gebr. Hoffsummer Spezialpapier GmbH & Co. KG", "city": "DuREN", "country": "Germany", "country_matched": "Germany", "latitude": 50.8019859, "longitude": 6.4584151, "n_mills": 130, "rejectedFines_kt": 1859.814, "rejectedFines_kt_per_mill": 14.306261538461539, "plant_type": "paper and packaging", "products": "Plastic base papers; decor papers; Insulating papers; Kraft papers; Technical specialty papers" }, "geometry": { "type": "Point", "coordinates": [ 6.4584151, 50.8019859 ] } },
{ "type": "Feature", "properties": { "uid": "GPPMDEU0033", "plant_name": "KANZAN Spezialpapiere GmbH, Member of the Oji Group", "city": "DuREN", "country": "Germany", "country_matched": "Germany", "latitude": 50.7915724, "longitude": 6.4865655, "n_mills": 130, "rejectedFines_kt": 1859.814, "rejectedFines_kt_per_mill": 14.306261538461539, "plant_type": "paper", "products": "Ink jet papers; Thermal papers" }, "geometry": { "type": "Point", "coordinates": [ 6.4865655, 50.7915724 ] } },
{ "type": "Feature", "properties": { "uid": "GPPMDEU0034", "plant_name": "Metsä Tissue GmbH, Werk Duren", "city": "DuREN", "country": "Germany", "country_matched": "Germany", "latitude": 50.8159656, "longitude": 6.4688387, "n_mills": 130, "rejectedFines_kt": 1859.814, "rejectedFines_kt_per_mill": 14.306261538461539, "plant_type": "paper", "products": "Parchments; vegetable; Baking papers; Soft tissue papers" }, "geometry": { "type": "Point", "coordinates": [ 6.4688387, 50.8159656 ] } },
{ "type": "Feature", "properties": { "uid": "GPPMDEU0035", "plant_name": "Modellfabrik Papier gGmbH, Eröffnung voraussichtlich 2024", "city": "DuREN", "country": "Germany", "country_matched": "Germany", "latitude": 50.799901, "longitude": 6.4794342, "n_mills": 130, "rejectedFines_kt": 1859.814, "rejectedFines_kt_per_mill": 14.306261538461539, "plant_type": "paper", "products": null }, "geometry": { "type": "Point", "coordinates": [ 6.4794342, 50.799901 ] } },
{ "type": "Feature", "properties": { "uid": "GPPMDEU0036", "plant_name": "SCHOELLERSHAMMER GmbH", "city": "DuREN", "country": "Germany", "country_matched": "Germany", "latitude": 50.7763279, "longitude": 6.489232, "n_mills": 130, "rejectedFines_kt": 1859.814, "rejectedFines_kt_per_mill": 14.306261538461539, "plant_type": "paper", "products": null }, "geometry": { "type": "Point", "coordinates": [ 6.489232, 50.7763279 ] } },
{ "type": "Feature", "properties": { "uid": "GPPMDEU0037", "plant_name": "Julius Schulte Söhne GmbH & Co. KG", "city": "DuSSELDORF", "country": "Germany", "country_matched": "Germany", "latitude": 51.2046152, "longitude": 6.7820606, "n_mills": 130, "rejectedFines_kt": 1859.814, "rejectedFines_kt_per_mill": 14.306261538461539, "plant_type": "paper", "products": "Lining papers; Core papers; tube papers; Kraft papers; Core board; tube board" }, "geometry": { "type": "Point", "coordinates": [ 6.7820606, 51.2046152 ] } },
{ "type": "Feature", "properties": { "uid": "GPPMDEU0038", "plant_name": "Sofidel Germany GmbH, Niederlassung Dusseldorf", "city": "DuSSELDORF", "country": "Germany", "country_matched": "Germany", "latitude": 51.1659565, "longitude": 6.8597339, "n_mills": 130, "rejectedFines_kt": 1859.814, "rejectedFines_kt_per_mill": 14.306261538461539, "plant_type": "paper", "products": null }, "geometry": { "type": "Point", "coordinates": [ 6.8597339, 51.1659565 ] } },
{ "type": "Feature", "properties": { "uid": "GPPMDEU0039", "plant_name": "Sappi Ehingen GmbH", "city": "Ehingen", "country": "Germany", "country_matched": "Germany", "latitude": 48.26545, "longitude": 9.72689, "n_mills": 130, "rejectedFines_kt": 1859.814, "rejectedFines_kt_per_mill": 14.306261538461539, "plant_type": "paper", "products": null }, "geometry": { "type": "Point", "coordinates": [ 9.72689, 48.26545 ] } },
{ "type": "Feature", "properties": { "uid": "GPPMDEU0040", "plant_name": "Sappi Ehingen GmbH", "city": "EHINGEN AN DER DONAU", "country": "Germany", "country_matched": "Germany", "latitude": 48.26968, "longitude": 9.72748, "n_mills": 130, "rejectedFines_kt": 1859.814, "rejectedFines_kt_per_mill": 14.306261538461539, "plant_type": "paper", "products": null }, "geometry": { "type": "Point", "coordinates": [ 9.72748, 48.26968 ] } },
{ "type": "Feature", "properties": { "uid": "GPPMDEU0041", "plant_name": "Model Sachsen Papier GmbH", "city": "EILENBURG", "country": "Germany", "country_matched": "Germany", "latitude": 51.4639646, "longitude": 12.5937448, "n_mills": 130, "rejectedFines_kt": 1859.814, "rejectedFines_kt_per_mill": 14.306261538461539, "plant_type": "paper", "products": "Newsprints" }, "geometry": { "type": "Point", "coordinates": [ 12.5937448, 51.4639646 ] } },
{ "type": "Feature", "properties": { "uid": "GPPMDEU0042", "plant_name": "Progroup Paper PM2 GmbH", "city": "EISENHuTTENSTADT", "country": "Germany", "country_matched": "Germany", "latitude": 52.1790152, "longitude": 14.6345307, "n_mills": 130, "rejectedFines_kt": 1859.814, "rejectedFines_kt_per_mill": 14.306261538461539, "plant_type": "paper", "products": "Testliner; Wellenstoff - Waste paper fluting material" }, "geometry": { "type": "Point", "coordinates": [ 14.6345307, 52.1790152 ] } },
{ "type": "Feature", "properties": { "uid": "GPPMDEU0043", "plant_name": "Papierfabrik Palm, Werk Eltmann", "city": "ELTMANN", "country": "Germany", "country_matched": "Germany", "latitude": 49.9843344, "longitude": 10.652143, "n_mills": 130, "rejectedFines_kt": 1859.814, "rejectedFines_kt_per_mill": 14.306261538461539, "plant_type": "paper", "products": "Newsprints" }, "geometry": { "type": "Point", "coordinates": [ 10.652143, 49.9843344 ] } },
{ "type": "Feature", "properties": { "uid": "GPPMDEU0045", "plant_name": "Neenah Gessner GmbH, Neenah Gessner Feldkirchen-Westerham", "city": "FELDKIRCHEN-WESTERHAM", "country": "Germany", "country_matched": "Germany", "latitude": 47.89435, "longitude": 11.8428094, "n_mills": 130, "rejectedFines_kt": 1859.814, "rejectedFines_kt_per_mill": 14.306261538461539, "plant_type": "paper", "products": "Specialty paper" }, "geometry": { "type": "Point", "coordinates": [ 11.8428094, 47.89435 ] } },
{ "type": "Feature", "properties": { "uid": "GPPMDEU0046", "plant_name": "Fjord Paper Flensburg GmbH", "city": "FLENSBURG", "country": "Germany", "country_matched": "Germany", "latitude": 54.7786316, "longitude": 9.4318283, "n_mills": 130, "rejectedFines_kt": 1859.814, "rejectedFines_kt_per_mill": 14.306261538461539, "plant_type": "paper", "products": null }, "geometry": { "type": "Point", "coordinates": [ 9.4318283, 54.7786316 ] } },
{ "type": "Feature", "properties": { "uid": "GPPMDEU0047", "plant_name": "Julius Glatz GmbH Papierfabriken Neidenfels, Werk Frankeneck", "city": "FRANKENECK", "country": "Germany", "country_matched": "Germany", "latitude": 49.3741052, "longitude": 8.0461865, "n_mills": 130, "rejectedFines_kt": 1859.814, "rejectedFines_kt_per_mill": 14.306261538461539, "plant_type": "paper", "products": null }, "geometry": { "type": "Point", "coordinates": [ 8.0461865, 49.3741052 ] } },
{ "type": "Feature", "properties": { "uid": "GPPMDEU0048", "plant_name": "Papierfabrik Hainsberg GmbH", "city": "FREITAL", "country": "Germany", "country_matched": "Germany", "latitude": 50.9871074, "longitude": 13.6389027, "n_mills": 130, "rejectedFines_kt": 1859.814, "rejectedFines_kt_per_mill": 14.306261538461539, "plant_type": "paper", "products": "Photocopy papers; copier papers; printer papers; Envelope papers; Recycling papers" }, "geometry": { "type": "Point", "coordinates": [ 13.6389027, 50.9871074 ] } },
{ "type": "Feature", "properties": { "uid": "GPPMDEU0049", "plant_name": "Papierfabrik Adolf Jass GmbH & Co. KG", "city": "FULDA", "country": "Germany", "country_matched": "Germany", "latitude": 50.5674403, "longitude": 9.6820759, "n_mills": 130, "rejectedFines_kt": 1859.814, "rejectedFines_kt_per_mill": 14.306261538461539, "plant_type": "paper", "products": "Testliner; Wellenstoff - Waste paper fluting material" }, "geometry": { "type": "Point", "coordinates": [ 9.6820759, 50.5674403 ] } },
{ "type": "Feature", "properties": { "uid": "GPPMDEU0050", "plant_name": "Hamburger Rieger GmbH, Hamburger Rieger Gelsenkirchen GmbH & Co. KG", "city": "GELSENKIRCHEN", "country": "Germany", "country_matched": "Germany", "latitude": 51.5391813, "longitude": 7.083147, "n_mills": 130, "rejectedFines_kt": 1859.814, "rejectedFines_kt_per_mill": 14.306261538461539, "plant_type": "paper", "products": null }, "geometry": { "type": "Point", "coordinates": [ 7.083147, 51.5391813 ] } },
{ "type": "Feature", "properties": { "uid": "GPPMDEU0055", "plant_name": "Steinbeis Papier GmbH", "city": "GLuCKSTADT", "country": "Germany", "country_matched": "Germany", "latitude": 53.7812187, "longitude": 9.4285707, "n_mills": 130, "rejectedFines_kt": 1859.814, "rejectedFines_kt_per_mill": 14.306261538461539, "plant_type": "paper", "products": "Magazine papers; Digital printing papers; Office papers" }, "geometry": { "type": "Point", "coordinates": [ 9.4285707, 53.7812187 ] } },
{ "type": "Feature", "properties": { "uid": "GPPMDEU0056", "plant_name": "Buttenpapierfabrik Gmund GmbH & Co. KG", "city": "GMUND AM TEGERNSEE", "country": "Germany", "country_matched": "Germany", "latitude": 47.7543426, "longitude": 11.7411321, "n_mills": 130, "rejectedFines_kt": 1859.814, "rejectedFines_kt_per_mill": 14.306261538461539, "plant_type": "paper and packaging", "products": "Paper and boards" }, "geometry": { "type": "Point", "coordinates": [ 11.7411321, 47.7543426 ] } },
{ "type": "Feature", "properties": { "uid": "GPPMDEU0057", "plant_name": "Papierfabrik Louisenthal GmbH, Giesecke & Devrient Gruppe", "city": "GMUND AM TEGERNSEE", "country": "Germany", "country_matched": "Germany", "latitude": 47.75727, "longitude": 11.74438, "n_mills": 130, "rejectedFines_kt": 1859.814, "rejectedFines_kt_per_mill": 14.306261538461539, "plant_type": "paper", "products": "Banknote papers; Document papers; Cheque papers; Loan paper" }, "geometry": { "type": "Point", "coordinates": [ 11.74438, 47.75727 ] } },
{ "type": "Feature", "properties": { "uid": "GPPMDEU0058", "plant_name": "Baron-Well GmbH", "city": "GOSLAR", "country": "Germany", "country_matched": "Germany", "latitude": 51.9107674, "longitude": 10.4849916, "n_mills": 130, "rejectedFines_kt": 1859.814, "rejectedFines_kt_per_mill": 14.306261538461539, "plant_type": "paper and packaging", "products": "Common papers; schrenz; Corrugated boards; misc." }, "geometry": { "type": "Point", "coordinates": [ 10.4849916, 51.9107674 ] } },
{ "type": "Feature", "properties": { "uid": "GPPMDEU0059", "plant_name": "Koehler Holding SE & Co KG, Koehler Greiz GmbH & Co KG", "city": "GREIZ", "country": "Germany", "country_matched": "Germany", "latitude": 50.63859, "longitude": 12.20894, "n_mills": 130, "rejectedFines_kt": 1859.814, "rejectedFines_kt_per_mill": 14.306261538461539, "plant_type": "paper", "products": "Coloured papers" }, "geometry": { "type": "Point", "coordinates": [ 12.20894, 50.63859 ] } },
{ "type": "Feature", "properties": { "uid": "GPPMDEU0060", "plant_name": "GRuNPERGA Papier GmbH", "city": "GRuNHAINICHEN", "country": "Germany", "country_matched": "Germany", "latitude": 50.7786198, "longitude": 13.1594074, "n_mills": 130, "rejectedFines_kt": 1859.814, "rejectedFines_kt_per_mill": 14.306261538461539, "plant_type": "pulp and paper", "products": "Envelopes and paper" }, "geometry": { "type": "Point", "coordinates": [ 13.1594074, 50.7786198 ] } },
{ "type": "Feature", "properties": { "uid": "GPPMDEU0062", "plant_name": "Felix Schoeller GmbH & Co. KG, Werk Gunzach", "city": "GuNZACH", "country": "Germany", "country_matched": "Germany", "latitude": 47.82107, "longitude": 10.43401, "n_mills": 130, "rejectedFines_kt": 1859.814, "rejectedFines_kt_per_mill": 14.306261538461539, "plant_type": "paper", "products": null }, "geometry": { "type": "Point", "coordinates": [ 10.43401, 47.82107 ] } },
{ "type": "Feature", "properties": { "uid": "GPPMDEU0063", "plant_name": "Kabel Premium Pulp & Paper GmbH", "city": "HAGEN", "country": "Germany", "country_matched": "Germany", "latitude": 51.4070258, "longitude": 7.4908582, "n_mills": 130, "rejectedFines_kt": 1859.814, "rejectedFines_kt_per_mill": 14.306261538461539, "plant_type": "paper", "products": "Web offset papers; coated; Gravure papers in reels; coated" }, "geometry": { "type": "Point", "coordinates": [ 7.4908582, 51.4070258 ] } },
{ "type": "Feature", "properties": { "uid": "GPPMDEU0064", "plant_name": "Karl Kurz GmbH & Co. KG, Werk Trauchgau", "city": "HALBLECH", "country": "Germany", "country_matched": "Germany", "latitude": 47.6413426, "longitude": 10.8167248, "n_mills": 130, "rejectedFines_kt": 1859.814, "rejectedFines_kt_per_mill": 14.306261538461539, "plant_type": "paper", "products": null }, "geometry": { "type": "Point", "coordinates": [ 10.8167248, 47.6413426 ] } },
{ "type": "Feature", "properties": { "uid": "GPPMDEU0065", "plant_name": "Hellbut & Co GmbH, Betriebsteil Papierfabrik Ilfeld", "city": "HARZTOR", "country": "Germany", "country_matched": "Germany", "latitude": 51.5875155, "longitude": 10.7840571, "n_mills": 130, "rejectedFines_kt": 1859.814, "rejectedFines_kt_per_mill": 14.306261538461539, "plant_type": "paper and packaging", "products": "Crêpe papers; misc.; Corrugated boards A-flute" }, "geometry": { "type": "Point", "coordinates": [ 10.7840571, 51.5875155 ] } },
{ "type": "Feature", "properties": { "uid": "GPPMDEU0066", "plant_name": "Hollingsworth & Vose GmbH", "city": "HATZFELD (EDER)", "country": "Germany", "country_matched": "Germany", "latitude": 50.9932191, "longitude": 8.5300529, "n_mills": 130, "rejectedFines_kt": 1859.814, "rejectedFines_kt_per_mill": 14.306261538461539, "plant_type": "paper and packaging", "products": "Automobile filter papers; Filter papers; Filter material; Filter media" }, "geometry": { "type": "Point", "coordinates": [ 8.5300529, 50.9932191 ] } },
{ "type": "Feature", "properties": { "uid": "GPPMDEU0068", "plant_name": "Glatfelter Dresden GmbH, Composite Fibers Business Unit", "city": "HEIDENAU", "country": "Germany", "country_matched": "Germany", "latitude": 50.9707437, "longitude": 13.8793851, "n_mills": 130, "rejectedFines_kt": 1859.814, "rejectedFines_kt_per_mill": 14.306261538461539, "plant_type": "paper", "products": "Non-woven wallpaper base" }, "geometry": { "type": "Point", "coordinates": [ 13.8793851, 50.9707437 ] } },
{ "type": "Feature", "properties": { "uid": "GPPMDEU0070", "plant_name": "Smurfit Kappa Hoya Papier und Karton GmbH", "city": "HOYA", "country": "Germany", "country_matched": "Germany", "latitude": 52.8091424, "longitude": 9.1546764, "n_mills": 130, "rejectedFines_kt": 1859.814, "rejectedFines_kt_per_mill": 14.306261538461539, "plant_type": "paper", "products": "Fluting; Testliner; Folding boxboard; Barrier board" }, "geometry": { "type": "Point", "coordinates": [ 9.1546764, 52.8091424 ] } },
{ "type": "Feature", "properties": { "uid": "GPPMDEU0071", "plant_name": "UPM Hurth, Rhein Papier GmbH", "city": "HuRTH", "country": "Germany", "country_matched": "Germany", "latitude": 50.8619628, "longitude": 6.8324826, "n_mills": 130, "rejectedFines_kt": 1859.814, "rejectedFines_kt_per_mill": 14.306261538461539, "plant_type": "paper", "products": "Newsprints" }, "geometry": { "type": "Point", "coordinates": [ 6.8324826, 50.8619628 ] } },
{ "type": "Feature", "properties": { "uid": "GPPMDEU0072", "plant_name": "Lenk Paper GmbH", "city": "KAPPELRODECK", "country": "Germany", "country_matched": "Germany", "latitude": 48.5953382, "longitude": 8.1170505, "n_mills": 130, "rejectedFines_kt": 1859.814, "rejectedFines_kt_per_mill": 14.306261538461539, "plant_type": "paper", "products": "Paper" }, "geometry": { "type": "Point", "coordinates": [ 8.1170505, 48.5953382 ] } },
{ "type": "Feature", "properties": { "uid": "GPPMDEU0073", "plant_name": "Maxauer Papierfabrik GmbH, Schwarz Group", "city": "KARLSRUHE", "country": "Germany", "country_matched": "Germany", "latitude": 49.0388123, "longitude": 8.3117376, "n_mills": 130, "rejectedFines_kt": 1859.814, "rejectedFines_kt_per_mill": 14.306261538461539, "plant_type": "paper", "products": null }, "geometry": { "type": "Point", "coordinates": [ 8.3117376, 49.0388123 ] } },
{ "type": "Feature", "properties": { "uid": "GPPMDEU0074", "plant_name": "Hans Kolb Papierfabrik GmbH & Co. KG", "city": "KAUFBEUREN", "country": "Germany", "country_matched": "Germany", "latitude": 47.8978629, "longitude": 10.6203586, "n_mills": 130, "rejectedFines_kt": 1859.814, "rejectedFines_kt_per_mill": 14.306261538461539, "plant_type": "paper", "products": "Testliner; Papers for corrugated boards; misc." }, "geometry": { "type": "Point", "coordinates": [ 10.6203586, 47.8978629 ] } },
{ "type": "Feature", "properties": { "uid": "GPPMDEU0075", "plant_name": "Koehler Holding SE & Co KG, Koehler Kehl GmbH", "city": "KEHL", "country": "Germany", "country_matched": "Germany", "latitude": 48.5842747, "longitude": 7.8199958, "n_mills": 130, "rejectedFines_kt": 1859.814, "rejectedFines_kt_per_mill": 14.306261538461539, "plant_type": "paper", "products": "Carbonless papers / NCR papers; Plastic base papers; decor papers; Thermal papers" }, "geometry": { "type": "Point", "coordinates": [ 7.8199958, 48.5842747 ] } },
{ "type": "Feature", "properties": { "uid": "GPPMDEU0076", "plant_name": "Gebr. Grunewald GmbH & Co. KG", "city": "KIRCHHUNDEM", "country": "Germany", "country_matched": "Germany", "latitude": 51.0729358, "longitude": 8.0696264, "n_mills": 130, "rejectedFines_kt": 1859.814, "rejectedFines_kt_per_mill": 14.306261538461539, "plant_type": "paper and packaging", "products": "Paper and boards" }, "geometry": { "type": "Point", "coordinates": [ 8.0696264, 51.0729358 ] } },
{ "type": "Feature", "properties": { "uid": "GPPMDEU0077", "plant_name": "Kimberly-Clark GmbH, KIMBERLY-CLARK PROFESSIONAL", "city": "KOBLENZ", "country": "Germany", "country_matched": "Germany", "latitude": 50.39167, "longitude": 7.58522, "n_mills": 130, "rejectedFines_kt": 1859.814, "rejectedFines_kt_per_mill": 14.306261538461539, "plant_type": "paper", "products": "Toilet papers; Kitchen rolls; Facial tissues; Paper towels; kitchen towels" }, "geometry": { "type": "Point", "coordinates": [ 7.58522, 50.39167 ] } },
{ "type": "Feature", "properties": { "uid": "GPPMDEU0078", "plant_name": "Carl Macher GmbH & Co. KG, Kunert Gruppe", "city": "KÖDITZ", "country": "Germany", "country_matched": "Germany", "latitude": 50.3510112, "longitude": 11.865336, "n_mills": 130, "rejectedFines_kt": 1859.814, "rejectedFines_kt_per_mill": 14.306261538461539, "plant_type": "paper and packaging", "products": "Core board; tube board" }, "geometry": { "type": "Point", "coordinates": [ 11.865336, 50.3510112 ] } },
{ "type": "Feature", "properties": { "uid": "GPPMDEU0079", "plant_name": "Papierfabrik Louisenthal GmbH, Werk Königstein", "city": "KÖNIGSTEIN/SÄCHSISCHE SCHWEIZ", "country": "Germany", "country_matched": "Germany", "latitude": 50.9123254, "longitude": 14.0528256, "n_mills": 130, "rejectedFines_kt": 1859.814, "rejectedFines_kt_per_mill": 14.306261538461539, "plant_type": "paper", "products": null }, "geometry": { "type": "Point", "coordinates": [ 14.0528256, 50.9123254 ] } },
{ "type": "Feature", "properties": { "uid": "GPPMDEU0080", "plant_name": "Metsä Tissue GmbH, Werk Kreuzau", "city": "KREUZAU", "country": "Germany", "country_matched": "Germany", "latitude": 50.7261833, "longitude": 6.472219, "n_mills": 130, "rejectedFines_kt": 1859.814, "rejectedFines_kt_per_mill": 14.306261538461539, "plant_type": "paper", "products": "Tissue" }, "geometry": { "type": "Point", "coordinates": [ 6.472219, 50.7261833 ] } },
{ "type": "Feature", "properties": { "uid": "GPPMDEU0081", "plant_name": "Papierfabrik Niederauer Muhle GmbH", "city": "KREUZAU", "country": "Germany", "country_matched": "Germany", "latitude": 50.7423525, "longitude": 6.4879452, "n_mills": 130, "rejectedFines_kt": 1859.814, "rejectedFines_kt_per_mill": 14.306261538461539, "plant_type": "paper and packaging", "products": "Testliner; Papers for corrugated boards; misc." }, "geometry": { "type": "Point", "coordinates": [ 6.4879452, 50.7423525 ] } },
{ "type": "Feature", "properties": { "uid": "GPPMDEU0082", "plant_name": "Krempel GmbH, Werk Kuppenheim", "city": "KUPPENHEIM", "country": "Germany", "country_matched": "Germany", "latitude": 48.8366854, "longitude": 8.245062, "n_mills": 130, "rejectedFines_kt": 1859.814, "rejectedFines_kt_per_mill": 14.306261538461539, "plant_type": "paper", "products": null }, "geometry": { "type": "Point", "coordinates": [ 8.245062, 48.8366854 ] } },
{ "type": "Feature", "properties": { "uid": "GPPMDEU0083", "plant_name": "DREWSEN SPEZIALPAPIERE GmbH & Co. KG", "city": "LACHENDORF", "country": "Germany", "country_matched": "Germany", "latitude": 52.6252739, "longitude": 10.2460268, "n_mills": 130, "rejectedFines_kt": 1859.814, "rejectedFines_kt_per_mill": 14.306261538461539, "plant_type": "paper", "products": "Paper" }, "geometry": { "type": "Point", "coordinates": [ 10.2460268, 52.6252739 ] } },
{ "type": "Feature", "properties": { "uid": "GPPMDEU0084", "plant_name": "Lahnpaper GmbH", "city": "LAHNSTEIN", "country": "Germany", "country_matched": "Germany", "latitude": 50.3073736, "longitude": 7.6062956, "n_mills": 130, "rejectedFines_kt": 1859.814, "rejectedFines_kt_per_mill": 14.306261538461539, "plant_type": "paper", "products": "Impregnated papers; Synthetic papers; Non-wovens" }, "geometry": { "type": "Point", "coordinates": [ 7.6062956, 50.3073736 ] } },
{ "type": "Feature", "properties": { "uid": "GPPMDEU0085", "plant_name": "Progroup AG", "city": "LANDAU IN DER PFALZ", "country": "Germany", "country_matched": "Germany", "latitude": 49.2090843, "longitude": 8.1377551, "n_mills": 130, "rejectedFines_kt": 1859.814, "rejectedFines_kt_per_mill": 14.306261538461539, "plant_type": "paper", "products": "Corrugated boards" }, "geometry": { "type": "Point", "coordinates": [ 8.1377551, 49.2090843 ] } },
{ "type": "Feature", "properties": { "uid": "GPPMDEU0087", "plant_name": "Kimberly-Clark GmbH Mainz", "city": "MAINZ", "country": "Germany", "country_matched": "Germany", "latitude": 49.9967885, "longitude": 8.2816513, "n_mills": 130, "rejectedFines_kt": 1859.814, "rejectedFines_kt_per_mill": 14.306261538461539, "plant_type": "paper", "products": "Toilet paper; wet; Facial tissues; Panty shields; panty liners; Diapers; nappies" }, "geometry": { "type": "Point", "coordinates": [ 8.2816513, 49.9967885 ] } },
{ "type": "Feature", "properties": { "uid": "GPPMDEU0088", "plant_name": "WEPA Deutschland GmbH & Co. KG, WEPA Deutschland GmbH & Co. KG, Werk Mainz", "city": "MAINZ", "country": "Germany", "country_matched": "Germany", "latitude": 50.0289637, "longitude": 8.2319868, "n_mills": 130, "rejectedFines_kt": 1859.814, "rejectedFines_kt_per_mill": 14.306261538461539, "plant_type": "paper", "products": null }, "geometry": { "type": "Point", "coordinates": [ 8.2319868, 50.0289637 ] } },
{ "type": "Feature", "properties": { "uid": "GPPMDEU0089", "plant_name": "Essity Operations Mainz-Kostheim GmbH", "city": "MAINZ-KOSTHEIM", "country": "Germany", "country_matched": "Germany", "latitude": 50.0056443, "longitude": 8.31776, "n_mills": 130, "rejectedFines_kt": 1859.814, "rejectedFines_kt_per_mill": 14.306261538461539, "plant_type": "paper", "products": "Toilet paper" }, "geometry": { "type": "Point", "coordinates": [ 8.31776, 50.0056443 ] } },
{ "type": "Feature", "properties": { "uid": "GPPMDEU0090", "plant_name": "Essity Operations Mannheim GmbH", "city": "MANNHEIM", "country": "Germany", "country_matched": "Germany", "latitude": 49.5342827, "longitude": 8.4594229, "n_mills": 130, "rejectedFines_kt": 1859.814, "rejectedFines_kt_per_mill": 14.306261538461539, "plant_type": "paper", "products": "Pulp; tissues" }, "geometry": { "type": "Point", "coordinates": [ 8.4594229, 49.5342827 ] } },
{ "type": "Feature", "properties": { "uid": "GPPMDEU0091", "plant_name": "WEPA Deutschland GmbH & Co. KG, WEPA Deutschland GmbH & Co. KG, Werk Giershagen", "city": "MARSBERG", "country": "Germany", "country_matched": "Germany", "latitude": 51.4197162, "longitude": 8.8099577, "n_mills": 130, "rejectedFines_kt": 1859.814, "rejectedFines_kt_per_mill": 14.306261538461539, "plant_type": "paper", "products": null }, "geometry": { "type": "Point", "coordinates": [ 8.8099577, 51.4197162 ] } },
{ "type": "Feature", "properties": { "uid": "GPPMDEU0092", "plant_name": "Moritz J. Weig GmbH & Co. KG, Hauptverwaltung Mayen", "city": "MAYEN", "country": "Germany", "country_matched": "Germany", "latitude": 50.3211422, "longitude": 7.2341629, "n_mills": 130, "rejectedFines_kt": 1859.814, "rejectedFines_kt_per_mill": 14.306261538461539, "plant_type": "paper and packaging", "products": "Chromo duplex board; Chromo triplex board; Folding boxboard; Gypsum board; plasterboard" }, "geometry": { "type": "Point", "coordinates": [ 7.2341629, 50.3211422 ] } },
{ "type": "Feature", "properties": { "uid": "GPPMDEU0093", "plant_name": "Papierfabrik Nettemuhle GmbH & Co. KG", "city": "MAYEN", "country": "Germany", "country_matched": "Germany", "latitude": 50.3312324, "longitude": 7.2600669, "n_mills": 130, "rejectedFines_kt": 1859.814, "rejectedFines_kt_per_mill": 14.306261538461539, "plant_type": "paper", "products": "Tissue papers; Wrapping papers" }, "geometry": { "type": "Point", "coordinates": [ 7.2600669, 50.3312324 ] } },
{ "type": "Feature", "properties": { "uid": "GPPMDEU0094", "plant_name": "Fripa Papierfabrik Albert Friedrich KG", "city": "MILTENBERG", "country": "Germany", "country_matched": "Germany", "latitude": 49.7070679, "longitude": 9.2434875, "n_mills": 130, "rejectedFines_kt": 1859.814, "rejectedFines_kt_per_mill": 14.306261538461539, "plant_type": "paper", "products": "Towel papers; Toweling; Toilet tissue papers; Handkerchiefs" }, "geometry": { "type": "Point", "coordinates": [ 9.2434875, 49.7070679 ] } },
{ "type": "Feature", "properties": { "uid": "GPPMDEU0095", "plant_name": "Melitta Europa GmbH & Co. KG, Geschäftsbereich Kaffeezubereitung", "city": "MINDEN", "country": "Germany", "country_matched": "Germany", "latitude": 52.2992321, "longitude": 8.9053542, "n_mills": 130, "rejectedFines_kt": 1859.814, "rejectedFines_kt_per_mill": 14.306261538461539, "plant_type": "paper", "products": "Crêping paper; Filter papers; Coffee filter papers; Filter crêpe papers; Garbage sacks; Coffee filters; Filter paper articles" }, "geometry": { "type": "Point", "coordinates": [ 8.9053542, 52.2992321 ] } },
{ "type": "Feature", "properties": { "uid": "GPPMDEU0096", "plant_name": "Dynos GmbH, Niederlassung Muhltal", "city": "MuHLTAL", "country": "Germany", "country_matched": "Germany", "latitude": 49.8189511, "longitude": 8.6796765, "n_mills": 130, "rejectedFines_kt": 1859.814, "rejectedFines_kt_per_mill": 14.306261538461539, "plant_type": "paper", "products": "Coloured papers" }, "geometry": { "type": "Point", "coordinates": [ 8.6796765, 49.8189511 ] } },
{ "type": "Feature", "properties": { "uid": "GPPMDEU0097", "plant_name": "Julius Glatz GmbH Papierfabriken Neidenfels", "city": "NEIDENFELS", "country": "Germany", "country_matched": "Germany", "latitude": 49.3893919, "longitude": 8.0448943, "n_mills": 130, "rejectedFines_kt": 1859.814, "rejectedFines_kt_per_mill": 14.306261538461539, "plant_type": "paper", "products": "Paper" }, "geometry": { "type": "Point", "coordinates": [ 8.0448943, 49.3893919 ] } },
{ "type": "Feature", "properties": { "uid": "GPPMDEU0098", "plant_name": "Neu Kaliss Spezialpapier GmbH", "city": "NEU KALISS", "country": "Germany", "country_matched": "Germany", "latitude": 53.1814686, "longitude": 11.2740847, "n_mills": 130, "rejectedFines_kt": 1859.814, "rejectedFines_kt_per_mill": 14.306261538461539, "plant_type": "paper", "products": "Paper" }, "geometry": { "type": "Point", "coordinates": [ 11.2740847, 53.1814686 ] } },
{ "type": "Feature", "properties": { "uid": "GPPMDEU0099", "plant_name": "Kartonfabrik Porstendorf GmbH", "city": "NEUENGÖNNA", "country": "Germany", "country_matched": "Germany", "latitude": 50.9738223, "longitude": 11.6400332, "n_mills": 130, "rejectedFines_kt": 1859.814, "rejectedFines_kt_per_mill": 14.306261538461539, "plant_type": "paper and packaging", "products": "Water repellent board; Grey board; chip board; Laminated cardboard" }, "geometry": { "type": "Point", "coordinates": [ 11.6400332, 50.9738223 ] } },
{ "type": "Feature", "properties": { "uid": "GPPMDEU0100", "plant_name": "Essity Operations Neuss GmbH", "city": "NEUSS", "country": "Germany", "country_matched": "Germany", "latitude": 51.2092055, "longitude": 6.715126, "n_mills": 130, "rejectedFines_kt": 1859.814, "rejectedFines_kt_per_mill": 14.306261538461539, "plant_type": "paper", "products": "Toilet papers; Handkerchiefs" }, "geometry": { "type": "Point", "coordinates": [ 6.715126, 51.2092055 ] } },
{ "type": "Feature", "properties": { "uid": "GPPMDEU0101", "plant_name": "MM Neuss GmbH", "city": "NEUSS", "country": "Germany", "country_matched": "Germany", "latitude": 51.2201, "longitude": 6.6978, "n_mills": 130, "rejectedFines_kt": 1859.814, "rejectedFines_kt_per_mill": 14.306261538461539, "plant_type": "paper and packaging", "products": "Duplex board; Liner board" }, "geometry": { "type": "Point", "coordinates": [ 6.6978, 51.2201 ] } },
{ "type": "Feature", "properties": { "uid": "GPPMDEU0102", "plant_name": "Ober-Schmitten Paper, iS Holding", "city": "NIDDA", "country": "Germany", "country_matched": "Germany", "latitude": 50.4449276, "longitude": 9.03615, "n_mills": 130, "rejectedFines_kt": 1859.814, "rejectedFines_kt_per_mill": 14.306261538461539, "plant_type": "paper", "products": null }, "geometry": { "type": "Point", "coordinates": [ 9.03615, 50.4449276 ] } },
{ "type": "Feature", "properties": { "uid": "GPPMDEU0103", "plant_name": "Koehler Holding SE & Co KG", "city": "OBERKIRCH", "country": "Germany", "country_matched": "Germany", "latitude": 48.52806, "longitude": 8.08694, "n_mills": 130, "rejectedFines_kt": 1859.814, "rejectedFines_kt_per_mill": 14.306261538461539, "plant_type": "paper", "products": null }, "geometry": { "type": "Point", "coordinates": [ 8.08694, 48.52806 ] } },
{ "type": "Feature", "properties": { "uid": "GPPMDEU0104", "plant_name": "Felix Schoeller GmbH & Co. KG", "city": "OSNABRuCK", "country": "Germany", "country_matched": "Germany", "latitude": 52.2831848, "longitude": 8.1151807, "n_mills": 130, "rejectedFines_kt": 1859.814, "rejectedFines_kt_per_mill": 14.306261538461539, "plant_type": "paper", "products": null }, "geometry": { "type": "Point", "coordinates": [ 8.1151807, 52.2831848 ] } },
{ "type": "Feature", "properties": { "uid": "GPPMDEU0105", "plant_name": "Felix Schoeller GmbH & Co. KG, Werk Osnabruck", "city": "OSNABRuCK", "country": "Germany", "country_matched": "Germany", "latitude": 52.2692409, "longitude": 8.1137034, "n_mills": 130, "rejectedFines_kt": 1859.814, "rejectedFines_kt_per_mill": 14.306261538461539, "plant_type": "paper", "products": null }, "geometry": { "type": "Point", "coordinates": [ 8.1137034, 52.2692409 ] } },
{ "type": "Feature", "properties": { "uid": "GPPMDEU0106", "plant_name": "KÄMMERER Spezialpapiere GmbH, KÄMMERER Paper GmbH", "city": "OSNABRuCK", "country": "Germany", "country_matched": "Germany", "latitude": 52.2941339, "longitude": 8.0232262, "n_mills": 130, "rejectedFines_kt": 1859.814, "rejectedFines_kt_per_mill": 14.306261538461539, "plant_type": "paper", "products": "Plastic base papers; decor papers; Abrasive papers; abrasive base papers" }, "geometry": { "type": "Point", "coordinates": [ 8.0232262, 52.2941339 ] } },
{ "type": "Feature", "properties": { "uid": "GPPMDEU0107", "plant_name": "Felix Schoeller GmbH & Co. KG, Werk Penig", "city": "PENIG", "country": "Germany", "country_matched": "Germany", "latitude": 50.9338374, "longitude": 12.7085463, "n_mills": 130, "rejectedFines_kt": 1859.814, "rejectedFines_kt_per_mill": 14.306261538461539, "plant_type": "paper", "products": null }, "geometry": { "type": "Point", "coordinates": [ 12.7085463, 50.9338374 ] } },
{ "type": "Feature", "properties": { "uid": "GPPMDEU0108", "plant_name": "Metsä Tissue GmbH, Werk Raubach", "city": "RAUBACH", "country": "Germany", "country_matched": "Germany", "latitude": 50.5845264, "longitude": 7.6243777, "n_mills": 130, "rejectedFines_kt": 1859.814, "rejectedFines_kt_per_mill": 14.306261538461539, "plant_type": "paper", "products": "Paper" }, "geometry": { "type": "Point", "coordinates": [ 7.6243777, 50.5845264 ] } },
{ "type": "Feature", "properties": { "uid": "GPPMDEU0109", "plant_name": "Raubling Papier GmbH, Heinzel Group", "city": "RAUBLING", "country": "Germany", "country_matched": "Germany", "latitude": 47.79584, "longitude": 12.1193, "n_mills": 130, "rejectedFines_kt": 1859.814, "rejectedFines_kt_per_mill": 14.306261538461539, "plant_type": "paper", "products": "Kraftliner; Testliner; Wellenstoff - Waste paper fluting material; Common boards" }, "geometry": { "type": "Point", "coordinates": [ 12.1193, 47.79584 ] } },
{ "type": "Feature", "properties": { "uid": "GPPMDEU0110", "plant_name": "Pucaro Elektro-Isolierstoffe GmbH", "city": "ROIGHEIM", "country": "Germany", "country_matched": "Germany", "latitude": 49.3632804, "longitude": 9.3451357, "n_mills": 130, "rejectedFines_kt": 1859.814, "rejectedFines_kt_per_mill": 14.306261538461539, "plant_type": "paper", "products": "Fine presspahn; Presspahn; pressing board; Pressboards; punching cardboards" }, "geometry": { "type": "Point", "coordinates": [ 9.3451357, 49.3632804 ] } },
{ "type": "Feature", "properties": { "uid": "GPPMDEU0111", "plant_name": "Karl Kurz GmbH & Co. KG, Tullau Pappen®", "city": "ROSENGARTEN", "country": "Germany", "country_matched": "Germany", "latitude": 49.08963, "longitude": 9.73625, "n_mills": 130, "rejectedFines_kt": 1859.814, "rejectedFines_kt_per_mill": 14.306261538461539, "plant_type": "paper and packaging", "products": "Board and packing" }, "geometry": { "type": "Point", "coordinates": [ 9.73625, 49.08963 ] } },
{ "type": "Feature", "properties": { "uid": "GPPMDEU0112", "plant_name": "Mercer Rosenthal GmbH - MR, Mercer International Group", "city": "ROSENTHAL AM RENNSTEIG", "country": "Germany", "country_matched": "Germany", "latitude": 50.4034989, "longitude": 11.7007465, "n_mills": 130, "rejectedFines_kt": 1859.814, "rejectedFines_kt_per_mill": 14.306261538461539, "plant_type": "paper", "products": "Sulphite pulps; bleached; Sulphate pulps; bleached; long fibred" }, "geometry": { "type": "Point", "coordinates": [ 11.7007465, 50.4034989 ] } },
{ "type": "Feature", "properties": { "uid": "GPPMDEU0113", "plant_name": "Papierfabrik Adolf Jass Schwarza GmbH", "city": "RUDOLSTADT", "country": "Germany", "country_matched": "Germany", "latitude": 50.68154, "longitude": 11.33235, "n_mills": 130, "rejectedFines_kt": 1859.814, "rejectedFines_kt_per_mill": 14.306261538461539, "plant_type": "paper", "products": "Testliner; Wellenstoff - Waste paper fluting material" }, "geometry": { "type": "Point", "coordinates": [ 11.33235, 50.68154 ] } },
{ "type": "Feature", "properties": { "uid": "GPPMDEU0114", "plant_name": "Progroup Paper PM3 GmbH", "city": "SANDERSDORF-BREHNA", "country": "Germany", "country_matched": "Germany", "latitude": 51.6368221, "longitude": 12.2284822, "n_mills": 130, "rejectedFines_kt": 1859.814, "rejectedFines_kt_per_mill": 14.306261538461539, "plant_type": "paper", "products": "Papers for corrugated boards; misc." }, "geometry": { "type": "Point", "coordinates": [ 12.2284822, 51.6368221 ] } },
{ "type": "Feature", "properties": { "uid": "GPPMDEU0116", "plant_name": "Sofidel Germany GmbH", "city": "SCHMALKALDEN", "country": "Germany", "country_matched": "Germany", "latitude": 50.7228707, "longitude": 10.3563328, "n_mills": 130, "rejectedFines_kt": 1859.814, "rejectedFines_kt_per_mill": 14.306261538461539, "plant_type": "paper", "products": "Crêpe toilet paper; Kitchen rolls; Toilet tissue papers" }, "geometry": { "type": "Point", "coordinates": [ 10.3563328, 50.7228707 ] } },
{ "type": "Feature", "properties": { "uid": "GPPMDEU0117", "plant_name": "UPM Augsburg, UPM GmbH, UPM Schongau, UPM GmbH", "city": "SCHONGAU", "country": "Germany", "country_matched": "Germany", "latitude": 47.8081365, "longitude": 10.9023531, "n_mills": 130, "rejectedFines_kt": 1859.814, "rejectedFines_kt_per_mill": 14.306261538461539, "plant_type": "paper", "products": "Newsprints; SC papers; calendered papers" }, "geometry": { "type": "Point", "coordinates": [ 10.9023531, 47.8081365 ] } },
{ "type": "Feature", "properties": { "uid": "GPPMDEU0118", "plant_name": "LEIPA Georg Leinfelder GmbH, Werk Schrobenhausen", "city": "SCHROBENHAUSEN", "country": "Germany", "country_matched": "Germany", "latitude": 48.5565911, "longitude": 11.2621823, "n_mills": 130, "rejectedFines_kt": 1859.814, "rejectedFines_kt_per_mill": 14.306261538461539, "plant_type": "paper and packaging", "products": "Paper and boards" }, "geometry": { "type": "Point", "coordinates": [ 11.2621823, 48.5565911 ] } },
{ "type": "Feature", "properties": { "uid": "GPPMDEU0119", "plant_name": "Schumacher Packaging GmbH Werk Schwarzenberg", "city": "SCHWARZENBERG/ERZGEBIRGE", "country": "Germany", "country_matched": "Germany", "latitude": 50.5344803, "longitude": 12.8091229, "n_mills": 130, "rejectedFines_kt": 1859.814, "rejectedFines_kt_per_mill": 14.306261538461539, "plant_type": "paper", "products": "Folding boxes all kinds; Plain boxes; Board blanks; cut-outs; Flexo printings; Diecuts" }, "geometry": { "type": "Point", "coordinates": [ 12.8091229, 50.5344803 ] } },
{ "type": "Feature", "properties": { "uid": "GPPMDEU0120", "plant_name": "Schumacher Packaging GmbH Werk Schwarzenberg, BT Kartonerzeugung", "city": "SCHWARZENBERG/ERZGEBIRGE", "country": "Germany", "country_matched": "Germany", "latitude": 50.5330505, "longitude": 12.8128652, "n_mills": 130, "rejectedFines_kt": 1859.814, "rejectedFines_kt_per_mill": 14.306261538461539, "plant_type": "paper and packaging", "products": "Cardboard; solid board" }, "geometry": { "type": "Point", "coordinates": [ 12.8128652, 50.5330505 ] } },
{ "type": "Feature", "properties": { "uid": "GPPMDEU0121", "plant_name": "LEIPA Georg Leinfelder GmbH, Werk Schwedt", "city": "SCHWEDT/ODER", "country": "Germany", "country_matched": "Germany", "latitude": 53.0780066, "longitude": 14.3133191, "n_mills": 130, "rejectedFines_kt": 1859.814, "rejectedFines_kt_per_mill": 14.306261538461539, "plant_type": "paper and packaging", "products": "LWC papers; Testliner; Papers for corrugated boards; misc." }, "geometry": { "type": "Point", "coordinates": [ 14.3133191, 53.0780066 ] } },
{ "type": "Feature", "properties": { "uid": "GPPMDEU0122", "plant_name": "Hamburger Rieger GmbH, Papierfabrik Spremberg / Hamburger Containerboard", "city": "SPREMBERG", "country": "Germany", "country_matched": "Germany", "latitude": 51.520172, "longitude": 14.3365741, "n_mills": 130, "rejectedFines_kt": 1859.814, "rejectedFines_kt_per_mill": 14.306261538461539, "plant_type": "paper and packaging", "products": "Testliner; Papers for corrugated boards; misc.; Gypsum board; plasterboard" }, "geometry": { "type": "Point", "coordinates": [ 14.3365741, 51.520172 ] } },
{ "type": "Feature", "properties": { "uid": "GPPMDEU0123", "plant_name": "Sappi Stockstadt Mill", "city": "Stockstadt", "country": "Germany", "country_matched": "Germany", "latitude": 49.97624, "longitude": 9.0697, "n_mills": 130, "rejectedFines_kt": 1859.814, "rejectedFines_kt_per_mill": 14.306261538461539, "plant_type": "paper", "products": "Pulps; misc.; Machine coated papers; woodfree; special coated; Fine papers; Unbleached papers; Liner board" }, "geometry": { "type": "Point", "coordinates": [ 9.0697, 49.97624 ] } },
{ "type": "Feature", "properties": { "uid": "GPPMDEU0124", "plant_name": "Sappi Stockstadt GmbH, Division of Sappi Fine Paper Europe", "city": "STOCKSTADT AM MAIN", "country": "Germany", "country_matched": "Germany", "latitude": 49.9773198, "longitude": 9.0663252, "n_mills": 130, "rejectedFines_kt": 1859.814, "rejectedFines_kt_per_mill": 14.306261538461539, "plant_type": "paper", "products": "Pulps; misc.; Machine coated papers; woodfree; special coated; Fine papers; Unbleached papers; Liner board" }, "geometry": { "type": "Point", "coordinates": [ 9.0663252, 49.9773198 ] } },
{ "type": "Feature", "properties": { "uid": "GPPMDEU0125", "plant_name": "Papierwerk Sundern GmbH", "city": "SUNDERN (SAUERLAND)", "country": "Germany", "country_matched": "Germany", "latitude": 51.3210482, "longitude": 8.0072553, "n_mills": 130, "rejectedFines_kt": 1859.814, "rejectedFines_kt_per_mill": 14.306261538461539, "plant_type": "paper", "products": "Tissue products for hospital needs; Tissues for all purposes" }, "geometry": { "type": "Point", "coordinates": [ 8.0072553, 51.3210482 ] } },
{ "type": "Feature", "properties": { "uid": "GPPMDEU0126", "plant_name": "Pfleiderer Teisnach GmbH & Co. KG", "city": "TEISNACH", "country": "Germany", "country_matched": "Germany", "latitude": 49.0424586, "longitude": 13.0000891, "n_mills": 130, "rejectedFines_kt": 1859.814, "rejectedFines_kt_per_mill": 14.306261538461539, "plant_type": "paper and packaging", "products": "Tissue papers; Greaseproof and waterproof papers; Mixed kraft papers; Flame retardant papers; Grass paper" }, "geometry": { "type": "Point", "coordinates": [ 13.0000891, 49.0424586 ] } },
{ "type": "Feature", "properties": { "uid": "GPPMDEU0127", "plant_name": "Krempel GmbH, Werk Thalheim", "city": "THALHEIM", "country": "Germany", "country_matched": "Germany", "latitude": 50.6930477, "longitude": 12.8454457, "n_mills": 130, "rejectedFines_kt": 1859.814, "rejectedFines_kt_per_mill": 14.306261538461539, "plant_type": "paper", "products": null }, "geometry": { "type": "Point", "coordinates": [ 12.8454457, 50.6930477 ] } },
{ "type": "Feature", "properties": { "uid": "GPPMDEU0128", "plant_name": "Felix Schoeller GmbH & Co. KG, Werk Neustadt", "city": "TITISEE-NEUSTADT", "country": "Germany", "country_matched": "Germany", "latitude": 47.9057812, "longitude": 8.2260375, "n_mills": 130, "rejectedFines_kt": 1859.814, "rejectedFines_kt_per_mill": 14.306261538461539, "plant_type": "paper", "products": null }, "geometry": { "type": "Point", "coordinates": [ 8.2260375, 47.9057812 ] } },
{ "type": "Feature", "properties": { "uid": "GPPMDEU0129", "plant_name": "Papierfabrik Meldorf GmbH & Co. KG, Certina Holding", "city": "TORNESCH", "country": "Germany", "country_matched": "Germany", "latitude": 53.6946484, "longitude": 9.715911, "n_mills": 130, "rejectedFines_kt": 1859.814, "rejectedFines_kt_per_mill": 14.306261538461539, "plant_type": "paper", "products": "Unbleached papers; Testliner; Corrugating medium; Grass paper" }, "geometry": { "type": "Point", "coordinates": [ 9.715911, 53.6946484 ] } },
{ "type": "Feature", "properties": { "uid": "GPPMDEU0130", "plant_name": "Julius Schulte Trebsen GmbH & Co KG", "city": "TREBSEN", "country": "Germany", "country_matched": "Germany", "latitude": 51.28134, "longitude": 12.76785, "n_mills": 130, "rejectedFines_kt": 1859.814, "rejectedFines_kt_per_mill": 14.306261538461539, "plant_type": "paper", "products": "Kraft; paper" }, "geometry": { "type": "Point", "coordinates": [ 12.76785, 51.28134 ] } },
{ "type": "Feature", "properties": { "uid": "GPPMDEU0131", "plant_name": "Hamburger Rieger GmbH, Papierfabrik Trostberg", "city": "TROSTBERG", "country": "Germany", "country_matched": "Germany", "latitude": 48.0254, "longitude": 12.5441, "n_mills": 130, "rejectedFines_kt": 1859.814, "rejectedFines_kt_per_mill": 14.306261538461539, "plant_type": "paper and packaging", "products": "Testliner; Duplex board; Triplex board; Grey board; chip board" }, "geometry": { "type": "Point", "coordinates": [ 12.5441, 48.0254 ] } },
{ "type": "Feature", "properties": { "uid": "GPPMDEU0132", "plant_name": "Feldmuehle GmbH", "city": "UETERSEN", "country": "Germany", "country_matched": "Germany", "latitude": 53.679743, "longitude": 9.6785387, "n_mills": 130, "rejectedFines_kt": 1859.814, "rejectedFines_kt_per_mill": 14.306261538461539, "plant_type": "paper and packaging", "products": "Label papers all kinds; Flexible packages; flexible packaging" }, "geometry": { "type": "Point", "coordinates": [ 9.6785387, 53.679743 ] } },
{ "type": "Feature", "properties": { "uid": "GPPMDEU0133", "plant_name": "Krempel GmbH", "city": "VAIHINGEN AN DER ENZ", "country": "Germany", "country_matched": "Germany", "latitude": 48.9120944, "longitude": 8.9807081, "n_mills": 130, "rejectedFines_kt": 1859.814, "rejectedFines_kt_per_mill": 14.306261538461539, "plant_type": "paper and packaging", "products": "Fine presspahn; Presspahn; pressing board" }, "geometry": { "type": "Point", "coordinates": [ 8.9807081, 48.9120944 ] } },
{ "type": "Feature", "properties": { "uid": "GPPMDEU0134", "plant_name": "Papier- u. Kartonfabrik Varel GmbH & Co. KG", "city": "VAREL", "country": "Germany", "country_matched": "Germany", "latitude": 53.4035231, "longitude": 8.1346515, "n_mills": 130, "rejectedFines_kt": 1859.814, "rejectedFines_kt_per_mill": 14.306261538461539, "plant_type": "paper and packaging", "products": "Fluting; Kraftliner; Testliner; Wellenstoff - Waste paper fluting material; Folding boxboard; Grey board; chip board; Laminated board" }, "geometry": { "type": "Point", "coordinates": [ 8.1346515, 53.4035231 ] } },
{ "type": "Feature", "properties": { "uid": "GPPMDEU0135", "plant_name": "Papierfabrik Vreden GmbH", "city": "VREDEN", "country": "Germany", "country_matched": "Germany", "latitude": 52.032021, "longitude": 6.8263214, "n_mills": 130, "rejectedFines_kt": 1859.814, "rejectedFines_kt_per_mill": 14.306261538461539, "plant_type": "paper and packaging", "products": "Papers for corrugated boards; misc." }, "geometry": { "type": "Point", "coordinates": [ 6.8263214, 52.032021 ] } },
{ "type": "Feature", "properties": { "uid": "GPPMDEU0136", "plant_name": "Klingele Paper Weener SE & Co. KG, Papierfabrik Weener", "city": "WEENER", "country": "Germany", "country_matched": "Germany", "latitude": 53.1693921, "longitude": 7.365955, "n_mills": 130, "rejectedFines_kt": 1859.814, "rejectedFines_kt_per_mill": 14.306261538461539, "plant_type": "paper", "products": null }, "geometry": { "type": "Point", "coordinates": [ 7.365955, 53.1693921 ] } },
{ "type": "Feature", "properties": { "uid": "GPPMDEU0137", "plant_name": "Papierfabrik Carl Lenz GmbH & Co. KG", "city": "WEHR", "country": "Germany", "country_matched": "Germany", "latitude": 47.6278887, "longitude": 7.9061036, "n_mills": 130, "rejectedFines_kt": 1859.814, "rejectedFines_kt_per_mill": 14.306261538461539, "plant_type": "paper and packaging", "products": "Core papers; tube papers" }, "geometry": { "type": "Point", "coordinates": [ 7.9061036, 47.6278887 ] } },
{ "type": "Feature", "properties": { "uid": "GPPMDEU0138", "plant_name": "Katz GmbH & Co. KG", "city": "WEISENBACH", "country": "Germany", "country_matched": "Germany", "latitude": 48.7236271, "longitude": 8.3557998, "n_mills": 130, "rejectedFines_kt": 1859.814, "rejectedFines_kt_per_mill": 14.306261538461539, "plant_type": "paper and packaging", "products": "Display board; Woodpulp board; Passe-partout board; mountboard; Mechanical pulp boards; Offset printings; Beer mats; coasters" }, "geometry": { "type": "Point", "coordinates": [ 8.3557998, 48.7236271 ] } },
{ "type": "Feature", "properties": { "uid": "GPPMDEU0139", "plant_name": "Felix Schoeller GmbH & Co. KG, Werk Weissenborn", "city": "WEISSENBORN/ERZGEBIRGE", "country": "Germany", "country_matched": "Germany", "latitude": 50.8696713, "longitude": 13.3933513, "n_mills": 130, "rejectedFines_kt": 1859.814, "rejectedFines_kt_per_mill": 14.306261538461539, "plant_type": "paper", "products": null }, "geometry": { "type": "Point", "coordinates": [ 13.3933513, 50.8696713 ] } },
{ "type": "Feature", "properties": { "uid": "GPPMDEU0140", "plant_name": "Flexipack International Wunderlich GmbH + Co. KG, Werk II Gerlingen", "city": "WENDEN", "country": "Germany", "country_matched": "Germany", "latitude": 50.9791258, "longitude": 7.8359287, "n_mills": 130, "rejectedFines_kt": 1859.814, "rejectedFines_kt_per_mill": 14.306261538461539, "plant_type": "paper", "products": null }, "geometry": { "type": "Point", "coordinates": [ 7.8359287, 50.9791258 ] } },
{ "type": "Feature", "properties": { "uid": "GPPMDEU0141", "plant_name": "DS Smith Paper Deutschland GmbH Werk Witzenhausen", "city": "WITZENHAUSEN", "country": "Germany", "country_matched": "Germany", "latitude": 51.3178958, "longitude": 9.8491376, "n_mills": 130, "rejectedFines_kt": 1859.814, "rejectedFines_kt_per_mill": 14.306261538461539, "plant_type": "paper and packaging", "products": "Fluting; Corrugating medium; Wellenstoff - Waste paper fluting material" }, "geometry": { "type": "Point", "coordinates": [ 9.8491376, 51.3178958 ] } },
{ "type": "Feature", "properties": { "uid": "GPPMDEU0142", "plant_name": "Papierfabrik Palm, Werk Wörth", "city": "WÖRTH AM RHEIN", "country": "Germany", "country_matched": "Germany", "latitude": 49.0691062, "longitude": 8.2998326, "n_mills": 130, "rejectedFines_kt": 1859.814, "rejectedFines_kt_per_mill": 14.306261538461539, "plant_type": "paper", "products": "Testliner; Wellenstoff - Waste paper fluting material" }, "geometry": { "type": "Point", "coordinates": [ 8.2998326, 49.0691062 ] } },
{ "type": "Feature", "properties": { "uid": "GPPMDEU0143", "plant_name": "Erfurt & Sohn KG", "city": "WUPPERTAL", "country": "Germany", "country_matched": "Germany", "latitude": 51.2580594, "longitude": 7.2765927, "n_mills": 130, "rejectedFines_kt": 1859.814, "rejectedFines_kt_per_mill": 14.306261538461539, "plant_type": "paper", "products": "Wood chip wallpapers; Non-wovens; Wallpapers" }, "geometry": { "type": "Point", "coordinates": [ 7.2765927, 51.2580594 ] } },
{ "type": "Feature", "properties": { "uid": "GPPMDEU0144", "plant_name": "Smurfit Kappa Zulpich Papier GmbH", "city": "ZuLPICH", "country": "Germany", "country_matched": "Germany", "latitude": 50.7057729, "longitude": 6.6523005, "n_mills": 130, "rejectedFines_kt": 1859.814, "rejectedFines_kt_per_mill": 14.306261538461539, "plant_type": "paper and packaging", "products": "Liners; Testliner; Wellenstoff - Waste paper fluting material" }, "geometry": { "type": "Point", "coordinates": [ 6.6523005, 50.7057729 ] } },
{ "type": "Feature", "properties": { "uid": "GPPMDEU0145", "plant_name": "Krempel GmbH, Werk Zwönitz", "city": "ZWÖNITZ", "country": "Germany", "country_matched": "Germany", "latitude": 50.6255, "longitude": 12.82889, "n_mills": 130, "rejectedFines_kt": 1859.814, "rejectedFines_kt_per_mill": 14.306261538461539, "plant_type": "paper", "products": null }, "geometry": { "type": "Point", "coordinates": [ 12.82889, 50.6255 ] } },
{ "type": "Feature", "properties": { "uid": "GPPMDNK0001", "plant_name": "Skjern Paper A/S, Sonoco Group", "city": "Skjern", "country": "Denmark", "country_matched": "Denmark", "latitude": 55.9357308, "longitude": 8.5000012, "n_mills": 1, "rejectedFines_kt": 92.8575, "rejectedFines_kt_per_mill": 92.8575, "plant_type": "paper", "products": "Liner board; Grey board; chip board; Core board; tube board; Laminated board" }, "geometry": { "type": "Point", "coordinates": [ 8.5000012, 55.9357308 ] } },
{ "type": "Feature", "properties": { "uid": "GPPMESP0001", "plant_name": "Iberpapel Hernani Pulp and Paper Mill", "city": "Hernani", "country": "Spain", "country_matched": "Spain", "latitude": 43.259053, "longitude": -1.966882, "n_mills": 57, "rejectedFines_kt": 668.4315, "rejectedFines_kt_per_mill": 11.726868421052632, "plant_type": "paper", "products": null }, "geometry": { "type": "Point", "coordinates": [ -1.966882, 43.259053 ] } },
{ "type": "Feature", "properties": { "uid": "GPPMESP0002", "plant_name": "Lecta Leitza Pulp & Paper Mill", "city": "Leitza", "country": "Spain", "country_matched": "Spain", "latitude": 43.082538, "longitude": -1.920837, "n_mills": 57, "rejectedFines_kt": 668.4315, "rejectedFines_kt_per_mill": 11.726868421052632, "plant_type": "paper", "products": null }, "geometry": { "type": "Point", "coordinates": [ -1.920837, 43.082538 ] } },
{ "type": "Feature", "properties": { "uid": "GPPMESP0003", "plant_name": "Tortosa Pulp Mill", "city": "Tortosa", "country": "Spain", "country_matched": "Spain", "latitude": 40.779761, "longitude": 0.532858, "n_mills": 57, "rejectedFines_kt": 668.4315, "rejectedFines_kt_per_mill": 11.726868421052632, "plant_type": "paper", "products": null },